[
    {
        "nome_estabelecimento": "01 - Atacadão Matriz",
        "endereco": "AV. MORVAN DIAS DE FIGUEIREDO, 6169",
        "bairro": "VILA MARIA",
        "cidade": "SÃO PAULO",
        "estado": "SP",
        "latitude": -23.5255755,
        "longitude": -46.5728589,
        "tag": "atacadao"
    },
    {
        "nome_estabelecimento": "03 - Atacadão Campo Grande",
        "endereco": "AVENIDA CORONEL ANTONINO, 3671, .",
        "bairro": "MORADA VERDE",
        "cidade": "CAMPO GRANDE",
        "estado": "MS",
        "latitude": -20.4196208,
        "longitude": -54.5832558,
        "tag": "atacadao"
    },
    {
        "nome_estabelecimento": "04 - Atacadão São José Do Rio Preto",
        "endereco": "RUA SILVA JARDIM, 4141, -",
        "bairro": "VILA SANTA CRUZ",
        "cidade": "SÃO JOSÉ DO RIO PRETO",
        "estado": "SP",
        "latitude": -20.8184637,
        "longitude": -49.3727807,
        "tag": "atacadao"
    },
    {
        "nome_estabelecimento": "06 - Atacadão Taipas",
        "endereco": "AV. RAIMUNDO PEREIRA DE MAGALHAES, 11980, -",
        "bairro": "PARADA DE TAÍPAS",
        "cidade": "SÃO PAULO",
        "estado": "SP",
        "latitude": -23.4367727,
        "longitude": -46.7195698,
        "tag": "atacadao"
    },
    {
        "nome_estabelecimento": "07 - Atacadão Dourados",
        "endereco": "AV. MARCELINO PIRES, 4822, -",
        "bairro": "VILA INDUSTRIAL",
        "cidade": "DOURADOS",
        "estado": "MS",
        "latitude": -22.2253269,
        "longitude": -54.7816328,
        "tag": "atacadao"
    },
    {
        "nome_estabelecimento": "104 - Atacadão Atibaia",
        "endereco": "RUA SEVER DO VOUGA, 295, -",
        "bairro": "RECREIO ESTORIL",
        "cidade": "ATIBAIA",
        "estado": "SP",
        "latitude": -23.1144272,
        "longitude": -46.5739842,
        "tag": "atacadao"
    },
    {
        "nome_estabelecimento": "105 - Atacadão Campinas Ii",
        "endereco": "AVENIDA RUY RODRIGUEZ, 3100, -",
        "bairro": "JARDIM YEDA",
        "cidade": "CAMPINAS",
        "estado": "SP",
        "latitude": -22.9438873,
        "longitude": -47.1091897,
        "tag": "atacadao"
    },
    {
        "nome_estabelecimento": "113 - Atacadão São Luís",
        "endereco": "AVENIDA JERÔNIMO DE ALBUQUERQUE MARANHÃO, 160, -",
        "bairro": "BEQUIMÃO",
        "cidade": "SÃO LUÍS",
        "estado": "MA",
        "latitude": -2.5186596,
        "longitude": -44.252891,
        "tag": "atacadao"
    },
    {
        "nome_estabelecimento": "118 - Atacadão Manaus",
        "endereco": "AV. AUTAZ MIRIM, 3330, -",
        "bairro": "ZUMBI DOS PALMARES",
        "cidade": "MANAUS",
        "estado": "AM",
        "latitude": -3.0759469,
        "longitude": -59.9558928,
        "tag": "atacadao"
    },
    {
        "nome_estabelecimento": "122 - Atacadão Pelotas",
        "endereco": "AV PRESIDENTE JOÃO GOULART, 6161, -",
        "bairro": "FRAGATA",
        "cidade": "PELOTAS",
        "estado": "RS",
        "latitude": -31.7405907,
        "longitude": -52.3656967,
        "tag": "atacadao"
    },
    {
        "nome_estabelecimento": "126 - Atacadão Teresina Primavera",
        "endereco": "AVENIDA DUQUE DE CAXIAS, 2732, -",
        "bairro": "PRIMAVERA",
        "cidade": "TERESINA",
        "estado": "PI",
        "latitude": -5.0566452,
        "longitude": -42.8122812,
        "tag": "atacadao"
    },
    {
        "nome_estabelecimento": "130 - Atacadão Macaé",
        "endereco": "RODOVIA AMARAL PEIXOTO, S/N, -",
        "bairro": "SÃO JOSÉ DO BARRETO",
        "cidade": "MACAÉ",
        "estado": "RJ",
        "latitude": -22.3256137,
        "longitude": -41.7265853,
        "tag": "atacadao"
    },
    {
        "nome_estabelecimento": "132 - Atacadão Novo Hamburgo",
        "endereco": "AVENIDA PRIMEIRO DE MARÇO, 2711, -",
        "bairro": "NOVO HAMBURGO",
        "cidade": "NOVO HAMBURGO",
        "estado": "RS",
        "latitude": -29.7076375,
        "longitude": -51.1364617,
        "tag": "atacadao"
    },
    {
        "nome_estabelecimento": "133 - Atacadão Ipiranga",
        "endereco": "RUA DO MANIFESTO, 931, -",
        "bairro": "IPIRANGA",
        "cidade": "SÃO PAULO",
        "estado": "SP",
        "latitude": -23.5984246,
        "longitude": -46.5993994,
        "tag": "atacadao"
    },
    {
        "nome_estabelecimento": "135 - Atacadão Ponta Grossa",
        "endereco": "AV. VISCONDE DE TAUNAY, S/N, -",
        "bairro": "CONTORNO",
        "cidade": "Ponta Grossa",
        "estado": "PR",
        "latitude": -25.1037125,
        "longitude": -50.1978082,
        "tag": "atacadao"
    },
    {
        "nome_estabelecimento": "143 - Atacadão Taubaté",
        "endereco": "AVENIDA DOM PEDRO I, 3060, -",
        "bairro": "JARDIM BARONESA",
        "cidade": "TAUBATÉ",
        "estado": "SP",
        "latitude": -23.0148382,
        "longitude": -45.5234688,
        "tag": "atacadao"
    },
    {
        "nome_estabelecimento": "145 - Atacadão Araraquara",
        "endereco": "AVENIDA AROEIRAS, 285, -",
        "bairro": "DISTRITO INDUSTRIAL",
        "cidade": "ARARAQUARA",
        "estado": "SP",
        "latitude": -21.8169447,
        "longitude": -48.1723854,
        "tag": "atacadao"
    },
    {
        "nome_estabelecimento": "147 - Atacadão Juiz De Fora",
        "endereco": "AV. GARCIA RODRIGUES PAES , s/n, -",
        "bairro": "INDUSTRIAL",
        "cidade": "JUIZ DE FORA",
        "estado": "MG",
        "latitude": -21.7300363,
        "longitude": -43.3927029,
        "tag": "atacadao"
    },
    {
        "nome_estabelecimento": "149 - Atacadão Manaus-cidade Nova",
        "endereco": "AVENIDA MAX TEIXEIRA, 3856, -",
        "bairro": "CIDADE NOVA",
        "cidade": "MANAUS",
        "estado": "AM",
        "latitude": -3.0395317,
        "longitude": -60.0060562,
        "tag": "atacadao"
    },
    {
        "nome_estabelecimento": "152 - Atacadão Camaragibe",
        "endereco": "AVENIDA DOUTOR BELMINO CORREIA, 4817, -",
        "bairro": "ALBERTO MAIA",
        "cidade": "CAMARAGIBE",
        "estado": "PE",
        "latitude": -8.0179312,
        "longitude": -35.0073241,
        "tag": "atacadao"
    },
    {
        "nome_estabelecimento": "159 - Atacadão Macapá",
        "endereco": "RODOVIA JUSCELINO KUBITSCHEK, S/N, -",
        "bairro": "UNIVERSIDADE",
        "cidade": "MACAPÁ",
        "estado": "AP",
        "latitude": -0.0046778,
        "longitude": -51.0820498,
        "tag": "atacadao"
    },
    {
        "nome_estabelecimento": "160 - Atacadão Teresina Bela Vista",
        "endereco": "AVENIDA PREFEITO WALL FERRAZ, 10197, -",
        "bairro": "BELA VISTA",
        "cidade": "TERESINA",
        "estado": "PI",
        "latitude": -5.1431653,
        "longitude": -42.7764118,
        "tag": "atacadao"
    },
    {
        "nome_estabelecimento": "163 - Atacadão Sorocaba Dom Aguirre",
        "endereco": "RUA MARIA CINTO DE BIAGGI, 377, -",
        "bairro": "JARDIM SANTA ROSÁLIA",
        "cidade": "SOROCABA",
        "estado": "SP",
        "latitude": -23.4897665,
        "longitude": -47.4417526,
        "tag": "atacadao"
    },
    {
        "nome_estabelecimento": "164 - Atacadão Santo André Ii",
        "endereco": "AVENIDA DOS ESTADOS, 5200, -",
        "bairro": "VILA METALÚRGICA",
        "cidade": "SANTO ANDRÉ",
        "estado": "SP",
        "latitude": -23.6077809,
        "longitude": -46.545789,
        "tag": "atacadao"
    },
    {
        "nome_estabelecimento": "167 - Atacadão Betim",
        "endereco": "RUA DA SERTANEJA, 100, -",
        "bairro": "MORADA DO TREVO",
        "cidade": "BETIM",
        "estado": "MG",
        "latitude": -19.9779536,
        "longitude": -44.2012578,
        "tag": "atacadao"
    },
    {
        "nome_estabelecimento": "168 - Atacadão Itajaí",
        "endereco": "AVENIDA GOVERNADOR ADOLFO KONDER, 555, -",
        "bairro": "CIDADE NOVA",
        "cidade": "ITAJAÍ",
        "estado": "SC",
        "latitude": -26.9132915,
        "longitude": -48.6896103,
        "tag": "atacadao"
    },
    {
        "nome_estabelecimento": "171 - Atacadão Londrina Norte",
        "endereco": "AVENIDA BRASÍLIA, 5650, -",
        "bairro": "IDEAL",
        "cidade": "LONDRINA",
        "estado": "PR",
        "latitude": -23.2940884,
        "longitude": -51.1413324,
        "tag": "atacadao"
    },
    {
        "nome_estabelecimento": "172 - Atacadão Cascavel",
        "endereco": "AVENIDA TANCREDO NEVES, 3401, -",
        "bairro": "PIONEIROS CATARINENSES",
        "cidade": "CASCAVEL",
        "estado": "PR",
        "latitude": -24.9779456,
        "longitude": -53.4948486,
        "tag": "atacadao"
    },
    {
        "nome_estabelecimento": "173 - Atacadão Sobral",
        "endereco": "AVENIDA SENADOR FERNANDES TÁVORA, 605, -",
        "bairro": "SINHÁ SABÓIA",
        "cidade": "SOBRAL",
        "estado": "CE",
        "latitude": -3.7110455,
        "longitude": -40.3364568,
        "tag": "atacadao"
    },
    {
        "nome_estabelecimento": "175 - Atacadão Presidente Prudente",
        "endereco": "RUA ANTÔNIO ROTA, 855, -",
        "bairro": "JARDIM VALE DO SOL",
        "cidade": "PRESIDENTE PRUDENTE",
        "estado": "SP",
        "latitude": -22.1230188,
        "longitude": -51.4410984,
        "tag": "atacadao"
    },
    {
        "nome_estabelecimento": "1823 - Paulo Barbosa(mercado Extra)",
        "endereco": "RUA PAULO BARBOSA, 161/201, -",
        "bairro": "CENTRO",
        "cidade": "PETRÓPOLIS",
        "estado": "RJ",
        "latitude": -22.5092533,
        "longitude": -43.171008,
        "tag": "extra"
    },
    {
        "nome_estabelecimento": "185 - Atacadão Santo Antonio De Jesus",
        "endereco": "RUA JUERANA, 46, -",
        "bairro": "SÃO BENEDITO",
        "cidade": "SANTO ANTÔNIO DE JESUS",
        "estado": "BA",
        "latitude": -12.9632512,
        "longitude": -39.2416497,
        "tag": "atacadao"
    },
    {
        "nome_estabelecimento": "188 - Atacadão Manaus Educandos",
        "endereco": "AVENIDA LEOPOLDO PÉRES, 646, -",
        "bairro": "EDUCANDOS",
        "cidade": "MANAUS",
        "estado": "AM",
        "latitude": -3.1427055,
        "longitude": -60.009329,
        "tag": "atacadao"
    },
    {
        "nome_estabelecimento": "189 - Atacadão Fortaleza Osório",
        "endereco": "AVENIDA GENERAL OSÓRIO DE PAIVA, 6297, -",
        "bairro": "CANINDEZINHO",
        "cidade": "FORTALEZA",
        "estado": "CE",
        "latitude": -3.8104539,
        "longitude": -38.6063366,
        "tag": "atacadao"
    },
    {
        "nome_estabelecimento": "18 - Atacadão Guarulhos Dutra",
        "endereco": "RODOVIA PRESIDENTE DUTRA, S/N, -",
        "bairro": "CUMBICA",
        "cidade": "GUARULHOS",
        "estado": "SP",
        "latitude": -23.4557647,
        "longitude": -46.4756865,
        "tag": "atacadao"
    },
    {
        "nome_estabelecimento": "190 - Atacadão Jandira",
        "endereco": "AVENIDA SEBASTIÃO JORDÃO, 400, -",
        "bairro": "NÚCLEO MICRO INDUSTRIAL PRESIDENTE WILSON",
        "cidade": "JANDIRA",
        "estado": "SP",
        "latitude": -23.5298013,
        "longitude": -46.8933359,
        "tag": "atacadao"
    },
    {
        "nome_estabelecimento": "191 - Atacadão Subaé",
        "endereco": "AVENIDA DEPUTADO LUÍS EDUARDO MAGALHÃES, S/N, -",
        "bairro": "SUBAÉ",
        "cidade": "FEIRA DE SANTANA",
        "estado": "BA",
        "latitude": -12.3175049,
        "longitude": -38.8756212,
        "tag": "atacadao"
    },
    {
        "nome_estabelecimento": "194 - Atacadão Jundiaí",
        "endereco": "AVENIDA ANTÔNIO FREDERICO OZANAN, s/n, -",
        "bairro": "JARDIM LIBERDADE",
        "cidade": "JUNDIAÍ",
        "estado": "SP",
        "latitude": -23.1747671,
        "longitude": -46.8957467,
        "tag": "atacadao"
    },
    {
        "nome_estabelecimento": "196 - Atacadão Tamboré",
        "endereco": "AVENIDA PIRACEMA, 1605, -",
        "bairro": "TAMBORÉ",
        "cidade": "BARUERI",
        "estado": "SP",
        "latitude": -23.496038,
        "longitude": -46.8318044,
        "tag": "atacadao"
    },
    {
        "nome_estabelecimento": "197 - Atacadão Lucas Do Rio Verde",
        "endereco": "AV.UNIVERSITÁRIA, 250, -",
        "bairro": "PARQUE DAS EMAS",
        "cidade": "LUCAS DO RIO VERDE",
        "estado": "MT",
        "latitude": -13.0725064,
        "longitude": -55.9449772,
        "tag": "atacadao"
    },
    {
        "nome_estabelecimento": "199 - Atacadão Patos",
        "endereco": "RODOVIA BR-230, 2000, -",
        "bairro": "SETE CASAS",
        "cidade": "PATOS",
        "estado": "PB",
        "latitude": -7.0178354,
        "longitude": -37.2596291,
        "tag": "atacadao"
    },
    {
        "nome_estabelecimento": "1 - Cidade Canção Brasil",
        "endereco": "AVENIDA BRASIL, S/N, .",
        "bairro": "ZONA 05",
        "cidade": "MARINGÁ",
        "estado": "PR",
        "latitude": -23.4285853,
        "longitude": -51.9690146,
        "tag": "amigao"
    },
    {
        "nome_estabelecimento": "201 - Atacadão Ji Paraná",
        "endereco": "AVENIDA TRANSCONTINENTAL, 2799, -",
        "bairro": "RIACHUELO",
        "cidade": "JI-PARANÁ",
        "estado": "RO",
        "latitude": -10.8963879,
        "longitude": -61.9304907,
        "tag": "atacadao"
    },
    {
        "nome_estabelecimento": "202 - Atacadão São Gonçalo",
        "endereco": "AVENIDA JORNALISTA ROBERTO MARINHO, 407, -",
        "bairro": "MUTONDO",
        "cidade": "SÃO GONÇALO",
        "estado": "RJ",
        "latitude": -22.8247457,
        "longitude": -43.0072151,
        "tag": "atacadao"
    },
    {
        "nome_estabelecimento": "203 - Atacadão Chapecó",
        "endereco": "AVENIDA SENADOR ATTILIO FRANCISCO XAVIER FONTANA - E, 501, -",
        "bairro": "ENGENHO BRAUN",
        "cidade": "CHAPECÓ",
        "estado": "SC",
        "latitude": -27.0984524,
        "longitude": -52.6520465,
        "tag": "atacadao"
    },
    {
        "nome_estabelecimento": "206 - Atacadão Teixeira De Freitas",
        "endereco": "AVENIDA SÃO PAULO, 2500, -",
        "bairro": "VILA VERDE",
        "cidade": "TEIXEIRA DE FREITAS",
        "estado": "BA",
        "latitude": -17.558625,
        "longitude": -39.72746,
        "tag": "atacadao"
    },
    {
        "nome_estabelecimento": "207 - Atacadão Resende",
        "endereco": "AVENIDA FRANCISCO FORTES FILHO, 5, -",
        "bairro": "JARDIM ALIANÇA",
        "cidade": "RESENDE",
        "estado": "RJ",
        "latitude": -22.4804659,
        "longitude": -44.5061572,
        "tag": "atacadao"
    },
    {
        "nome_estabelecimento": "209 - Atacadão Ribeirão Via Norte",
        "endereco": "AVENIDA EDUARDO ANDREA MATARAZZO, 4015, -",
        "bairro": "IPIRANGA",
        "cidade": "RIBEIRÃO PRETO",
        "estado": "SP",
        "latitude": -21.1525497,
        "longitude": -47.8093857,
        "tag": "atacadao"
    },
    {
        "nome_estabelecimento": "20 - Atacadão Santo Amaro",
        "endereco": "ESTRADA DO M BOI MIRIM, 380, -",
        "bairro": "SANTO AMARO",
        "cidade": "SÃO PAULO",
        "estado": "SP",
        "latitude": -23.7028402,
        "longitude": -46.7834495,
        "tag": "atacadao"
    },
    {
        "nome_estabelecimento": "210 - Atacadão Jacarepaguá",
        "endereco": "ESTRADA DOS BANDEIRANTES, 3285, -",
        "bairro": "JACAREPAGUÁ",
        "cidade": "RIO DE JANEIRO",
        "estado": "RJ",
        "latitude": -22.9553444,
        "longitude": -43.3750284,
        "tag": "atacadao"
    },
    {
        "nome_estabelecimento": "211 - Atacadão Itapecerica Da Serra",
        "endereco": "RODOVIA ARMANDO SALLES, 5888, -",
        "bairro": "RECREIO CAMPESTRE",
        "cidade": "ITAPECERICA DA SERRA",
        "estado": "SP",
        "latitude": -23.6889418,
        "longitude": -46.8071224,
        "tag": "atacadao"
    },
    {
        "nome_estabelecimento": "212 - Atacadão Blumenau",
        "endereco": "RODOVIA BR-470, 3000, -",
        "bairro": "SALTO DO NORTE",
        "cidade": "BLUMENAU",
        "estado": "SC",
        "latitude": -26.8634812,
        "longitude": -49.0924841,
        "tag": "atacadao"
    },
    {
        "nome_estabelecimento": "215 - Atacadão Belém Portal",
        "endereco": "RUA DO ARSENAL, 380, -",
        "bairro": "CIDADE VELHA",
        "cidade": "BELÉM",
        "estado": "PA",
        "latitude": -1.4668444,
        "longitude": -48.5049228,
        "tag": "atacadao"
    },
    {
        "nome_estabelecimento": "218 - Atacadão Sorocaba",
        "endereco": "RUA FRANCISCO MORON FERNANDES, 1275, -",
        "bairro": "PARQUE CAMPOLIM",
        "cidade": "SOROCABA",
        "estado": "SP",
        "latitude": -23.527468,
        "longitude": -47.4564812,
        "tag": "atacadao"
    },
    {
        "nome_estabelecimento": "219 - Atacadão São José Do Rio Preto",
        "endereco": "AVENIDA ALFREDO ANTONIO DE OLIVEIRA, 3415, .",
        "bairro": "RESIDENCIAL CAETANO",
        "cidade": "SÃO JOSÉ DO RIO PRETO",
        "estado": "SP",
        "latitude": -20.7590568,
        "longitude": -49.3833659,
        "tag": "atacadao"
    },
    {
        "nome_estabelecimento": "222 - Atacadão São José Dos Pinhais",
        "endereco": "AVENIDA RUI BARBOSA, 7992, -",
        "bairro": "ÁGUAS BELAS",
        "cidade": "SÃO JOSÉ DOS PINHAIS",
        "estado": "PR",
        "latitude": -25.5283856,
        "longitude": -49.1942138,
        "tag": "atacadao"
    },
    {
        "nome_estabelecimento": "225 - Atacadão Simões Filho",
        "endereco": "AV. ENG WALTER ARAGAO DE SOUZA, 473, -",
        "bairro": "KM 25",
        "cidade": "SIMÕES FILHO",
        "estado": "BA",
        "latitude": -12.7876571,
        "longitude": -38.3938304,
        "tag": "atacadao"
    },
    {
        "nome_estabelecimento": "227 - Atacadão Maringá Colombo",
        "endereco": "AVENIDA COLOMBO, 67, -",
        "bairro": "VILA NOVA",
        "cidade": "MARINGÁ",
        "estado": "PR",
        "latitude": -23.4211461,
        "longitude": -51.9077616,
        "tag": "atacadao"
    },
    {
        "nome_estabelecimento": "228 - Atacadão Recife Boa Viagem",
        "endereco": "RUA FRANCISCO CORREIA DE MORAIS, 100, -",
        "bairro": "IMBIRIBEIRA",
        "cidade": "RECIFE",
        "estado": "PE",
        "latitude": -8.124069,
        "longitude": -34.9110729,
        "tag": "atacadao"
    },
    {
        "nome_estabelecimento": "22 Taboão Da Serra",
        "endereco": "RODOVIA REGIS BITTENCOURT, 759, KM 15",
        "bairro": "CENTRO",
        "cidade": "TABOÃO DA SERRA",
        "estado": "SP",
        "latitude": -23.6077527,
        "longitude": -46.761197,
        "tag": "atacadao"
    },
    {
        "nome_estabelecimento": "230 - Atacadão Castanhal",
        "endereco": "AV. PRESIDENTE GETÚLIO VARGAS, 188, -",
        "bairro": "CRISTO REDENTOR",
        "cidade": "CASTANHAL",
        "estado": "PA",
        "latitude": -1.297718,
        "longitude": -47.9425421,
        "tag": "atacadao"
    },
    {
        "nome_estabelecimento": "235 - Atacadão Itanhaém",
        "endereco": "JORDÃO BRAMBILLA, 2061, -",
        "bairro": "JARDIM BELAS ARTES",
        "cidade": "ITANHAÉM",
        "estado": "SP",
        "latitude": -24.1871485,
        "longitude": -46.8231244,
        "tag": "atacadao"
    },
    {
        "nome_estabelecimento": "236 - Atacadão Barretos",
        "endereco": "AV. ANTONIO JOSÉ JUNQUEIRA DE AZEVEDO, 25, -",
        "bairro": "JOCKEY CLUB",
        "cidade": "BARRETOS",
        "estado": "SP",
        "latitude": -20.5449064,
        "longitude": -48.5782117,
        "tag": "atacadao"
    },
    {
        "nome_estabelecimento": "241 - Atacadão Uberaba",
        "endereco": "AVENIDA SANTOS DUMONT, 1750, -",
        "bairro": "SANTA MARIA",
        "cidade": "UBERABA",
        "estado": "MG",
        "latitude": -19.7541898,
        "longitude": -47.9518265,
        "tag": "atacadao"
    },
    {
        "nome_estabelecimento": "242 - Atacadão Viamão",
        "endereco": "AVENIDA SENADOR SALGADO FILHO, 4742, -",
        "bairro": "VIAMÓPOLIS",
        "cidade": "VIAMÃO",
        "estado": "RS",
        "latitude": -30.086367,
        "longitude": -51.0936799,
        "tag": "atacadao"
    },
    {
        "nome_estabelecimento": "244 - Atacadão Petrolina",
        "endereco": "AVENIDA DOUTOR ULISSES GUIMARÃES, SN, -",
        "bairro": "JARDIM AMAZONAS",
        "cidade": "PETROLINA",
        "estado": "PE",
        "latitude": -9.378558,
        "longitude": -40.5345343,
        "tag": "atacadao"
    },
    {
        "nome_estabelecimento": "245 - Atacadão Parnamirim",
        "endereco": "RODOVIA BR-101 KM15, 5300, -",
        "bairro": "NOVA ESPERANÇA",
        "cidade": "PARNAMIRIM",
        "estado": "RN",
        "latitude": -5.9414191,
        "longitude": -35.2648685,
        "tag": "atacadao"
    },
    {
        "nome_estabelecimento": "246 - Atacadão Curitiba Bairro Alto",
        "endereco": "RODOVIA BR-116, 3041, -",
        "bairro": "BAIRRO ALTO",
        "cidade": "CURITIBA",
        "estado": "PR",
        "latitude": -25.4102156,
        "longitude": -49.2200843,
        "tag": "atacadao"
    },
    {
        "nome_estabelecimento": "247 - Atacadão Realengo",
        "endereco": "RUA BERNARDO DE VASCONCELOS, SN, -",
        "bairro": "REALENGO",
        "cidade": "RIO DE JANEIRO",
        "estado": "RJ",
        "latitude": -22.8756882,
        "longitude": -43.4393665,
        "tag": "atacadao"
    },
    {
        "nome_estabelecimento": "249 - Atacadão Benfica",
        "endereco": "AVENIDA BRASIL, 3700, -",
        "bairro": "BENFICA",
        "cidade": "RIO DE JANEIRO",
        "estado": "RJ",
        "latitude": -22.8870092,
        "longitude": -43.2332059,
        "tag": "atacadao"
    },
    {
        "nome_estabelecimento": "251 - Atacadão Inajar De Souza",
        "endereco": "AVENIDA INAJAR DE SOUZA, 5180, -",
        "bairro": "VILA RICA",
        "cidade": "SÃO PAULO",
        "estado": "SP",
        "latitude": -23.4675043,
        "longitude": -46.6707802,
        "tag": "atacadao"
    },
    {
        "nome_estabelecimento": "252 - Atacadão Salvador Bonoco",
        "endereco": "AVENIDA MÁRIO LEAL FERREIRA, 500, -",
        "bairro": "BROTAS",
        "cidade": "SALVADOR",
        "estado": "BA",
        "latitude": -12.9843494,
        "longitude": -38.493588,
        "tag": "atacadao"
    },
    {
        "nome_estabelecimento": "257 - Atacadão Araçatuba",
        "endereco": "RUA CLIBAS DE ALMEIDA PRADO, 200, -",
        "bairro": "CASA NOVA",
        "cidade": "ARAÇATUBA",
        "estado": "SP",
        "latitude": -21.2110645,
        "longitude": -50.4677341,
        "tag": "atacadao"
    },
    {
        "nome_estabelecimento": "267 - Atacadão Mogi Mirim",
        "endereco": "AVENIDA PEDRO BOTESI, 2855, -",
        "bairro": "JARDIM SCOMPARIM",
        "cidade": "MOGI MIRIM",
        "estado": "SP",
        "latitude": -22.4021716,
        "longitude": -46.9699437,
        "tag": "atacadao"
    },
    {
        "nome_estabelecimento": "269 - Atacadão Anchieta",
        "endereco": "AVENIDA MARGINAL DIREITA ANCHIETA, 400, -",
        "bairro": "JARDIM SANTA CRUZ",
        "cidade": "SÃO PAULO",
        "estado": "SP",
        "latitude": -23.6435592,
        "longitude": -46.5863457,
        "tag": "atacadao"
    },
    {
        "nome_estabelecimento": "270 - Atacadão Rio Das Ostras",
        "endereco": "ESTRADA PROFESSOR LEANDRO FARIA SARZEDAS, S/N, -",
        "bairro": "ATLÂNTICA",
        "cidade": "RIO DAS OSTRAS",
        "estado": "RJ",
        "latitude": -22.4921529,
        "longitude": -41.9264904,
        "tag": "atacadao"
    },
    {
        "nome_estabelecimento": "271 - Atacadão Mauá João Ramalho",
        "endereco": "AVENIDA JOÃO RAMALHO, 1504, -",
        "bairro": "VILA JOÃO RAMALHO",
        "cidade": "MAUÁ",
        "estado": "SP",
        "latitude": -23.6639256,
        "longitude": -46.4836712,
        "tag": "atacadao"
    },
    {
        "nome_estabelecimento": "273 - Atacadão Maceió Petrópolis",
        "endereco": "AVENIDA DOUTOR DURVAL DE GÓES MONTEIRO, 6775, -",
        "bairro": "PETRÓPOLIS",
        "cidade": "MACEIÓ",
        "estado": "AL",
        "latitude": -9.5967542,
        "longitude": -35.7523893,
        "tag": "atacadao"
    },
    {
        "nome_estabelecimento": "274 - Atacadão Aracaju Tancredo Neves",
        "endereco": "AVENIDA PRESIDENTE TANCREDO NEVES, 3550, -",
        "bairro": "PONTO NOVO",
        "cidade": "ARACAJU",
        "estado": "SE",
        "latitude": -10.9377556,
        "longitude": -37.0810377,
        "tag": "atacadao"
    },
    {
        "nome_estabelecimento": "275 - Atacadão Bonsucesso",
        "endereco": "AVENIDA ITAÓCA, 886, -",
        "bairro": "BONSUCESSO",
        "cidade": "RIO DE JANEIRO",
        "estado": "RJ",
        "latitude": -22.867681,
        "longitude": -43.2573471,
        "tag": "atacadao"
    },
    {
        "nome_estabelecimento": "276 - Atacadão Ananindeua Coqueiro",
        "endereco": "RODOVIA BR-316, S/N, -",
        "bairro": "GUANABARA",
        "cidade": "ANANINDEUA",
        "estado": "PA",
        "latitude": -1.3909722,
        "longitude": -48.4154776,
        "tag": "atacadao"
    },
    {
        "nome_estabelecimento": "278 - Atacadão Campo Grande",
        "endereco": "ESTRADA DO MENDANHA, 3245, -",
        "bairro": "CAMPO GRANDE",
        "cidade": "RIO DE JANEIRO",
        "estado": "RJ",
        "latitude": -22.8660124,
        "longitude": -43.5515733,
        "tag": "atacadao"
    },
    {
        "nome_estabelecimento": "279 - Atacadão Campina Grande Itacaré",
        "endereco": "AVENIDA SENADOR ARGEMIRO DE FIGUEIREDO, 855, -",
        "bairro": "VILA CABRAL",
        "cidade": "CAMPINA GRANDE",
        "estado": "PB",
        "latitude": -7.2437762,
        "longitude": -35.8697523,
        "tag": "atacadao"
    },
    {
        "nome_estabelecimento": "281 - Atacadão Manaus Moderna",
        "endereco": "AVENIDA LOURENÇO DA SILVA BRAGA, 1640, -",
        "bairro": "CENTRO",
        "cidade": "MANAUS",
        "estado": "AM",
        "latitude": -3.1363008,
        "longitude": -60.0114128,
        "tag": "atacadao"
    },
    {
        "nome_estabelecimento": "282 - Atacadão Joinville",
        "endereco": "RODOVIA BR-101, S/N, -",
        "bairro": "GLÓRIA",
        "cidade": "JOINVILLE",
        "estado": "SC",
        "latitude": -26.2883206,
        "longitude": -48.8860466,
        "tag": "atacadao"
    },
    {
        "nome_estabelecimento": "283 - Atacadão São Leopoldo",
        "endereco": "AVENIDA ARNALDO PEREIRA DA SILVA, 1223, -",
        "bairro": "SANTOS DUMONT",
        "cidade": "SÃO LEOPOLDO",
        "estado": "RS",
        "latitude": -29.7302215,
        "longitude": -51.1468115,
        "tag": "atacadao"
    },
    {
        "nome_estabelecimento": "288 - Atacadão Porto Alegre Ceasa",
        "endereco": "RUA VÍTOR VALPÍRIO, 850, -",
        "bairro": "ANCHIETA",
        "cidade": "PORTO ALEGRE",
        "estado": "RS",
        "latitude": -29.9719489,
        "longitude": -51.1702765,
        "tag": "atacadao"
    },
    {
        "nome_estabelecimento": "289 - Atacadão Volta Redonda",
        "endereco": "AVENIDA DOIS, 12, -",
        "bairro": "JARDIM VILA RICA - TIRADENTES",
        "cidade": "VOLTA REDONDA",
        "estado": "RJ",
        "latitude": -22.5453746,
        "longitude": -44.0727729,
        "tag": "atacadao"
    },
    {
        "nome_estabelecimento": "28 - Atacadão Cuiabá",
        "endereco": "AV. XV DE NOVEMBRO, 981, -",
        "bairro": "PORTO",
        "cidade": "CUIABÁ",
        "estado": "MT",
        "latitude": -15.6146106,
        "longitude": -56.1031903,
        "tag": "atacadao"
    },
    {
        "nome_estabelecimento": "290 - Atacadão Florianópolis Jk",
        "endereco": "AVENIDA JUSCELINO KUBITSCHEK DE OLIVEIRA, 469, -",
        "bairro": "ESTREITO",
        "cidade": "FLORIANÓPOLIS",
        "estado": "SC",
        "latitude": -27.5963463,
        "longitude": -48.5782596,
        "tag": "atacadao"
    },
    {
        "nome_estabelecimento": "291 - Atacadão Nova Iguaçu",
        "endereco": "RUA PORTO CARRITO, S/N, -",
        "bairro": "COMENDADOR SOARES",
        "cidade": "NOVA IGUAÇU",
        "estado": "RJ",
        "latitude": -22.7387324,
        "longitude": -43.490538,
        "tag": "atacadao"
    },
    {
        "nome_estabelecimento": "292 - Atacadão Campo Dos Goytacazes",
        "endereco": "AVENIDA DOUTOR NILO PEÇANHA, 1038, -",
        "bairro": "PARQUE SANTO AMARO",
        "cidade": "CAMPOS DOS GOYTACAZES",
        "estado": "RJ",
        "latitude": -21.765435,
        "longitude": -41.329884,
        "tag": "atacadao"
    },
    {
        "nome_estabelecimento": "293 - Atacadão Recife Avenida",
        "endereco": "AVENIDA RECIFE, 5005, -",
        "bairro": "AREIAS",
        "cidade": "RECIFE",
        "estado": "PE",
        "latitude": -8.091963,
        "longitude": -34.9292701,
        "tag": "atacadao"
    },
    {
        "nome_estabelecimento": "294 - Atacadão Barra Da Tijuca",
        "endereco": "AVENIDA AYRTON SENNA, 2300, -",
        "bairro": "BARRA DA TIJUCA",
        "cidade": "RIO DE JANEIRO",
        "estado": "RJ",
        "latitude": -22.9860932,
        "longitude": -43.3654229,
        "tag": "atacadao"
    },
    {
        "nome_estabelecimento": "296 - Atacadão Cuiabá Cpa",
        "endereco": "AVENIDA OÁTOMO CANAVARROS, S/N, -",
        "bairro": "BELA VISTA",
        "cidade": "CUIABÁ",
        "estado": "MT",
        "latitude": -15.5780748,
        "longitude": -56.0591925,
        "tag": "atacadao"
    },
    {
        "nome_estabelecimento": "298 - Atacadão Teresina Ilhotas",
        "endereco": "AVENIDA HIGINO CUNHA, 2055, -",
        "bairro": "ILHOTAS",
        "cidade": "TERESINA",
        "estado": "PI",
        "latitude": -5.094972,
        "longitude": -42.7868482,
        "tag": "atacadao"
    },
    {
        "nome_estabelecimento": "300 - Atacadão Curitiba Parolin",
        "endereco": "AVENIDA PRESIDENTE WENCESLAU BRAZ, 1172, -",
        "bairro": "LINDÓIA",
        "cidade": "CURITIBA",
        "estado": "PR",
        "latitude": -25.4731727,
        "longitude": -49.2662725,
        "tag": "atacadao"
    },
    {
        "nome_estabelecimento": "301 - Atacadão Salvador Iguatemi",
        "endereco": "AVENIDA TANCREDO NEVES, 3413, -",
        "bairro": "CAMINHO DAS ÁRVORES",
        "cidade": "SALVADOR",
        "estado": "BA",
        "latitude": -12.9806572,
        "longitude": -38.4651906,
        "tag": "atacadao"
    },
    {
        "nome_estabelecimento": "302 - Atacadão Salvador Pirajá",
        "endereco": "RODOVIA BR-324, 9069, -",
        "bairro": "PIRAJÁ",
        "cidade": "SALVADOR",
        "estado": "BA",
        "latitude": -12.8975682,
        "longitude": -38.4496668,
        "tag": "atacadao"
    },
    {
        "nome_estabelecimento": "303 - Atacadão São José Educandario",
        "endereco": "RUA JOÃO GRUMICHE, 755, -",
        "bairro": "ROCADO",
        "cidade": "SÃO JOSÉ",
        "estado": "SC",
        "latitude": -27.599263,
        "longitude": -48.6219357,
        "tag": "atacadao"
    },
    {
        "nome_estabelecimento": "304 - Atacadão Fortaleza Br 116",
        "endereco": "AVENIDA ALBERTO CRAVEIRO, 507, -",
        "bairro": "DIAS MACEDO",
        "cidade": "FORTALEZA",
        "estado": "CE",
        "latitude": -3.7826905,
        "longitude": -38.5148849,
        "tag": "atacadao"
    },
    {
        "nome_estabelecimento": "305 - Atacadão Barra Do Ceará",
        "endereco": "AVENIDA FRANCISCO SÁ, 3175, -",
        "bairro": "CARLITO PAMPLONA",
        "cidade": "FORTALEZA",
        "estado": "CE",
        "latitude": -3.7191118,
        "longitude": -38.5546973,
        "tag": "atacadao"
    },
    {
        "nome_estabelecimento": "307 - Atacadão Goiânia Perimetral",
        "endereco": "AVENIDA PERIMETRAL NORTE, 3231, -",
        "bairro": "SETOR EMPRESARIAL",
        "cidade": "GOIÂNIA",
        "estado": "GO",
        "latitude": -16.6457416,
        "longitude": -49.3108304,
        "tag": "atacadao"
    },
    {
        "nome_estabelecimento": "30 - Atacadão Uberlândia",
        "endereco": "AVENIDA CESÁRIO CROSARA, 925, -",
        "bairro": "PRESIDENTE ROOSEVELT",
        "cidade": "UBERLÂNDIA",
        "estado": "MG",
        "latitude": -18.9008014,
        "longitude": -48.2913884,
        "tag": "atacadao"
    },
    {
        "nome_estabelecimento": "311 - Atacadão Salvador Trogogy",
        "endereco": "RUA ARTÊMIO CASTRO VALENTE, 1, -",
        "bairro": "CANABRAVA",
        "cidade": "SALVADOR",
        "estado": "BA",
        "latitude": -12.9292131,
        "longitude": -38.4135225,
        "tag": "atacadao"
    },
    {
        "nome_estabelecimento": "314 - Atacadão Biguaçu",
        "endereco": "RUA ALEXANDRE SÉRGIO GODINHO, 853, -",
        "bairro": "MAR DAS PEDRAS",
        "cidade": "BIGUAÇU",
        "estado": "SC",
        "latitude": -27.5243968,
        "longitude": -48.634609,
        "tag": "atacadao"
    },
    {
        "nome_estabelecimento": "318 - Atacadão Sorocaba-itavuvu",
        "endereco": "AVENIDA ITAVUVU, 3233, -",
        "bairro": "JARDIM SANTA CECÍLIA",
        "cidade": "SOROCABA",
        "estado": "SP",
        "latitude": -23.45773,
        "longitude": -47.4812996,
        "tag": "atacadao"
    },
    {
        "nome_estabelecimento": "31 - Atacadão Campo Grande",
        "endereco": "AV. COSTA E SILVA, 1525, -",
        "bairro": "VILA OLINDA",
        "cidade": "CAMPO GRANDE",
        "estado": "MS",
        "latitude": -20.4959416,
        "longitude": -54.6124536,
        "tag": "atacadao"
    },
    {
        "nome_estabelecimento": "35 - Atacadão São Miguel",
        "endereco": "AV. MARECHAL TITO, 2501, -",
        "bairro": "S. MIGUEL PAULISTA",
        "cidade": "SÃO PAULO",
        "estado": "SP",
        "latitude": -23.4935427,
        "longitude": -46.4428114,
        "tag": "atacadao"
    },
    {
        "nome_estabelecimento": "42 - Atacadão Maringá",
        "endereco": "RUA FERNÃO DIAS, 300, -",
        "bairro": "CENTRO",
        "cidade": "MARINGÁ",
        "estado": "PR",
        "latitude": -23.8757879,
        "longitude": -53.8873723,
        "tag": "atacadao"
    },
    {
        "nome_estabelecimento": "43 - Atacadão Carapicuiba",
        "endereco": "AV. INTEGRAÇÃO, 310, -",
        "bairro": "VILA MUNICIPAL",
        "cidade": "CARAPICUÍBA",
        "estado": "SP",
        "latitude": -23.5254851,
        "longitude": -46.8201,
        "tag": "atacadao"
    },
    {
        "nome_estabelecimento": "46 - Atacadão Santos",
        "endereco": "AVENIDA NOSSA SENHORA DE FÁTIMA, 298, -",
        "bairro": "CHICO DE PAULA",
        "cidade": "SANTOS",
        "estado": "SP",
        "latitude": -23.9341713,
        "longitude": -46.3626826,
        "tag": "atacadao"
    },
    {
        "nome_estabelecimento": "4 - Cidade Canção Paranavai",
        "endereco": "RUA PERNAMBUCO, 999, .",
        "bairro": "CENTRO",
        "cidade": "PARANAVAÍ",
        "estado": "PR",
        "latitude": -23.085839,
        "longitude": -52.4676872,
        "tag": "amigao"
    },
    {
        "nome_estabelecimento": "50 - Atacadão Olinda",
        "endereco": "AV. PAN NORDESTINA, 778, .",
        "bairro": "GUADALUPE",
        "cidade": "OLINDA",
        "estado": "PE",
        "latitude": -8.0055928,
        "longitude": -34.8569475,
        "tag": "atacadao"
    },
    {
        "nome_estabelecimento": "51 - Atacadão Natal",
        "endereco": "AVENIDA DÃO SILVEIRA, 7796, -",
        "bairro": "PITIMBU",
        "cidade": "NATAL",
        "estado": "RN",
        "latitude": -5.8729826,
        "longitude": -35.2206468,
        "tag": "atacadao"
    },
    {
        "nome_estabelecimento": "56 - Atacadão Caruaru",
        "endereco": "AVENIDA JOÃO DE BARROS, 101, -",
        "bairro": "PETRÓPOLIS",
        "cidade": "CARUARU",
        "estado": "PE",
        "latitude": -8.2965817,
        "longitude": -35.9760384,
        "tag": "atacadao"
    },
    {
        "nome_estabelecimento": "5741-cb Orlandia",
        "endereco": "AV. MARGINAL DIREITA, 2450, -",
        "bairro": "CENTRO",
        "cidade": "ORLÂNDIA",
        "estado": "SP",
        "latitude": -20.7148233,
        "longitude": -47.89249,
        "tag": "extra"
    },
    {
        "nome_estabelecimento": "57 - Atacadão Parelheiros",
        "endereco": "AV. SENADOR TEOTONIO VILELA, 8030, -",
        "bairro": "PARELHEIROS",
        "cidade": "SÃO PAULO",
        "estado": "SP",
        "latitude": -23.7687428,
        "longitude": -46.7174632,
        "tag": "atacadao"
    },
    {
        "nome_estabelecimento": "58 - Atacadão Cajazeiras",
        "endereco": "RUA COQUEIRO GRANDE, 614, -",
        "bairro": "CAJAZEIRAS",
        "cidade": "SALVADOR",
        "estado": "BA",
        "latitude": -12.9120861,
        "longitude": -38.403567,
        "tag": "atacadao"
    },
    {
        "nome_estabelecimento": "60 - Atacadão Vila Maria",
        "endereco": "AVENIDA MORVAN DIAS DE FIGUEIREDO , 6157, -",
        "bairro": "VILA MARIA",
        "cidade": "SÃO PAULO",
        "estado": "SP",
        "latitude": -23.5255755,
        "longitude": -46.5728589,
        "tag": "atacadao"
    },
    {
        "nome_estabelecimento": "63 - Atacadão Automóvel Clube",
        "endereco": "AV VICENTE DE CARVALHO, 730, -",
        "bairro": "VICENTE DE CARVALHO",
        "cidade": "RIO DE JANEIRO",
        "estado": "RJ",
        "latitude": -22.8540112,
        "longitude": -43.3105822,
        "tag": "atacadao"
    },
    {
        "nome_estabelecimento": "64 - Atacadão Goiânia",
        "endereco": "AVENIDA GOIÁS, 6505, -",
        "bairro": "SETOR CRIMÉIA OESTE",
        "cidade": "GOIÂNIA",
        "estado": "GO",
        "latitude": -16.6495557,
        "longitude": -49.2560328,
        "tag": "atacadao"
    },
    {
        "nome_estabelecimento": "65 - Atacadão Guadalupe",
        "endereco": "AVENIDA BRASIL, 22950, -",
        "bairro": "GUADALUPE",
        "cidade": "RIO DE JANEIRO",
        "estado": "RJ",
        "latitude": -22.8382714,
        "longitude": -43.3657921,
        "tag": "atacadao"
    },
    {
        "nome_estabelecimento": "66 - Atacadão Feira Morada Das Árvores",
        "endereco": "AV. EDUARDO FROES DA MOTA, 5500, -",
        "bairro": "MORADA DAS ARVORES",
        "cidade": "FEIRA DE SANTANA",
        "estado": "BA",
        "latitude": -12.2316455,
        "longitude": -38.9733826,
        "tag": "atacadao"
    },
    {
        "nome_estabelecimento": "68 - Atacadão Aracaju",
        "endereco": "AV. CHANCELER OSVALDO ARANHA, 2445, BR 235",
        "bairro": "NOVO PARAÍSO",
        "cidade": "ARACAJU",
        "estado": "SE",
        "latitude": -10.9081637,
        "longitude": -37.0889876,
        "tag": "atacadao"
    },
    {
        "nome_estabelecimento": "69 - Atacadão Mossoró",
        "endereco": "AVENIDA JOÃO DA ESCÓSSIA, 1724, -",
        "bairro": "NOVA BETÂNIA",
        "cidade": "MOSSORÓ",
        "estado": "RN",
        "latitude": -5.1712787,
        "longitude": -37.3731745,
        "tag": "atacadao"
    },
    {
        "nome_estabelecimento": "74 - Atacadão João Pessoa",
        "endereco": "RUA DOUTOR MANOEL LOPES DE CARVALHO, s/n, -",
        "bairro": "ERNESTO GEISEL",
        "cidade": "JOÃO PESSOA",
        "estado": "PB",
        "latitude": -7.1709812,
        "longitude": -34.8680407,
        "tag": "atacadao"
    },
    {
        "nome_estabelecimento": "80 - Atacadão Fortaleza",
        "endereco": "AV. SENADOR CARLOS JEREISSATI, S/N, -",
        "bairro": "SERRINHA",
        "cidade": "FORTALEZA",
        "estado": "CE",
        "latitude": -3.7771988,
        "longitude": -38.5484978,
        "tag": "atacadao"
    },
    {
        "nome_estabelecimento": "85 - Atacadão Piracicaba",
        "endereco": "RUA RICARDO MELOTTO, 578, -",
        "bairro": "SANTA TEREZINHA",
        "cidade": "PIRACICABA",
        "estado": "SP",
        "latitude": -22.6768471,
        "longitude": -47.6865995,
        "tag": "atacadao"
    },
    {
        "nome_estabelecimento": "89 - Atacadão Campina Grande",
        "endereco": "AV. MANOEL TAVARES, 1800, -",
        "bairro": "JARDIM TAVARES",
        "cidade": "CAMPINA GRANDE",
        "estado": "PB",
        "latitude": -7.2112913,
        "longitude": -35.8764493,
        "tag": "atacadao"
    },
    {
        "nome_estabelecimento": "98 - Atacadão Maceió Aeroporto",
        "endereco": "AVENIDA DOUTOR DURVAL DE GÓES MONTEIRO, 4466, -",
        "bairro": "TABULEIRO DO MARTINS",
        "cidade": "MACEIÓ",
        "estado": "AL",
        "latitude": -9.5940861,
        "longitude": -35.7532966,
        "tag": "atacadao"
    },
    {
        "nome_estabelecimento": "99 - Atacadão Barreiras",
        "endereco": "AV.CLERISTON ANDRADE, 3707, -",
        "bairro": "MIMOSO",
        "cidade": "BARREIRAS",
        "estado": "BA",
        "latitude": -12.0885294,
        "longitude": -45.8021495,
        "tag": "atacadao"
    },
    {
        "nome_estabelecimento": "Adecom- Associação Do Consumidor",
        "endereco": "RUA DO RIACHUELO, 105, .",
        "bairro": "BOA VISTA",
        "cidade": "RECIFE",
        "estado": "PE",
        "latitude": -8.0604502,
        "longitude": -34.8816677,
        "tag": "curitiba"
    },
    {
        "nome_estabelecimento": "Administração - Rio Grande Da Serra",
        "endereco": "RUA DO PROGRESSO, 700",
        "bairro": "CENTRO",
        "cidade": "RIO GRANDE DA SERRA",
        "estado": "SP",
        "latitude": -23.7504585,
        "longitude": -46.3967853,
        "tag": "prefeitura"
    },
    {
        "nome_estabelecimento": "Adriangela Eletro Pecas Ltda",
        "endereco": "AV ROUXINOL, 638, -",
        "bairro": "MOEMA",
        "cidade": "SÃO PAULO",
        "estado": "SP",
        "latitude": -23.604345,
        "longitude": -46.6692172,
        "tag": "nologo"
    },
    {
        "nome_estabelecimento": "A Eletr Rios Ltda Me",
        "endereco": "AV.INDEPENDENCIA, 859, -",
        "bairro": "VILA SEIXAS",
        "cidade": "RIBEIRÃO PRETO",
        "estado": "SP",
        "latitude": -21.1822729,
        "longitude": -47.802304,
        "tag": "eletronicarios"
    },
    {
        "nome_estabelecimento": "A E M Express",
        "endereco": "ESTRADA DA BATALHA, 494, .",
        "bairro": "PRAZERES",
        "cidade": "JABOATÃO DOS GUARARAPES",
        "estado": "PE",
        "latitude": -8.1431873,
        "longitude": -34.9179456,
        "tag": "nologo"
    },
    {
        "nome_estabelecimento": "Aeroporto Estadual De São José Do Rio Preto",
        "endereco": "AV. DOS ESTUDANTES, 3505, 3505, -",
        "bairro": "VILA AEROPORTO",
        "cidade": "SÃO JOSÉ DO RIO PRETO",
        "estado": "SP",
        "latitude": -20.8169922,
        "longitude": -49.408048,
        "tag": "aeroporto"
    },
    {
        "nome_estabelecimento": "A Fórmula Farmácia De Manipulação - Unidade Graças",
        "endereco": "PRAÇA DO ENTRONCAMENTO, 132, .",
        "bairro": "GRAÇAS",
        "cidade": "RECIFE",
        "estado": "PE",
        "latitude": -8.0499627,
        "longitude": -34.8977306,
        "tag": "aformulabr"
    },
    {
        "nome_estabelecimento": "A. I. R. Ferreira E Pereira Ltda - Loja 9058",
        "endereco": "RUA OSWALDO COCHRANE, 81, .",
        "bairro": "EMBARÉ",
        "cidade": "SANTOS",
        "estado": "SP",
        "latitude": -23.9724074,
        "longitude": -46.3146444,
        "tag": "nologo"
    },
    {
        "nome_estabelecimento": "A. I. R. Ferreira E Pereira Ltda - Loja 9310",
        "endereco": "RUA ALEXANDRE HERCULANO, 143, .",
        "bairro": "GONZAGA",
        "cidade": "SANTOS",
        "estado": "SP",
        "latitude": -23.9589827,
        "longitude": -46.3308695,
        "tag": "nologo"
    },
    {
        "nome_estabelecimento": "A. I. R. Ferreira E Pereira Ltda - Loja 9435",
        "endereco": "AVENIDA SIQUEIRA CAMPOS, 480, .",
        "bairro": "BOQUEIRÃO",
        "cidade": "SANTOS",
        "estado": "SP",
        "latitude": -23.9652708,
        "longitude": -46.3198756,
        "tag": "nologo"
    },
    {
        "nome_estabelecimento": "Alepe - Assembleia Legislativa Do Estado De Pernambuco",
        "endereco": "RUA DA UNIÃO, 439, .",
        "bairro": "BOA VISTA",
        "cidade": "RECIFE",
        "estado": "PE",
        "latitude": -8.0597705,
        "longitude": -34.8809845,
        "tag": "alepe"
    },
    {
        "nome_estabelecimento": "Alexanders G. Vargas-eletronica-me",
        "endereco": "RUA AFONSO PENA, 81, -",
        "bairro": "FAROL",
        "cidade": "MACEIÓ",
        "estado": "AL",
        "latitude": -9.6567571,
        "longitude": -35.7341371,
        "tag": "chileeletronica"
    },
    {
        "nome_estabelecimento": "Alsg (assosciaçao Dos Lojista S. Gpaes)",
        "endereco": "AVENIDA BARRETO DE MENEZES, 800, .",
        "bairro": "PIEDADE",
        "cidade": "JABOATÃO DOS GUARARAPES",
        "estado": "PE",
        "latitude": -8.1686428,
        "longitude": -34.9190677,
        "tag": "alsg"
    },
    {
        "nome_estabelecimento": "Ama/ubs Parque Fernanda",
        "endereco": "RUA ERNESTO SOARES FILHO, 301, -",
        "bairro": "PARQUE FERNANDA",
        "cidade": "SÃO PAULO",
        "estado": "SP",
        "latitude": -23.6750778,
        "longitude": -46.7926204,
        "tag": "cejam"
    },
    {
        "nome_estabelecimento": "Ambulatório Médico De Especialidades De Carapicuiba",
        "endereco": "AVENIDA PRESIDENTE TANCREDO DE ALMEIDA NEVES, 1304, -",
        "bairro": "CONJUNTO HABITACIONAL PRESIDENTE CASTELO BRANCO",
        "cidade": "CARAPICUÍBA",
        "estado": "SP",
        "latitude": -23.5383968,
        "longitude": -46.8211728,
        "tag": "cejam"
    },
    {
        "nome_estabelecimento": "Amigão Espanha",
        "endereco": "RUA ESPANHA, 399, -",
        "bairro": "BOM JARDIM",
        "cidade": "SÃO JOSÉ DO RIO PRETO",
        "estado": "SP",
        "latitude": -20.8289988,
        "longitude": -49.3779424,
        "tag": "amigao"
    },
    {
        "nome_estabelecimento": "Amigão Galeazzi",
        "endereco": "AVENIDA DANILO GALEAZZI, 2001, -",
        "bairro": "JARDIM SUZANA",
        "cidade": "SÃO JOSÉ DO RIO PRETO",
        "estado": "SP",
        "latitude": -20.7802555,
        "longitude": -49.3680099,
        "tag": "amigao"
    },
    {
        "nome_estabelecimento": "Amigão Presidente Prudente",
        "endereco": "AVENIDA JOAQUIM CONSTANTINO, 1896, -",
        "bairro": "VILA FORMOSA",
        "cidade": "PRESIDENTE PRUDENTE",
        "estado": "SP",
        "latitude": -22.1466968,
        "longitude": -51.3957473,
        "tag": "amigao"
    },
    {
        "nome_estabelecimento": "Amigão Votuporanga Pozzobon",
        "endereco": "AV. EMILIO ARROYO HERNANDES, 2749, -",
        "bairro": "POZZOBON",
        "cidade": "VOTUPORANGA",
        "estado": "SP",
        "latitude": -20.398197,
        "longitude": -49.9792583,
        "tag": "amigao"
    },
    {
        "nome_estabelecimento": "Colorcenter",
        "endereco": "AVENIDA JOÃO PAULO II, 1125, -",
        "bairro": "CENTRO",
        "cidade": "ARAXÁ",
        "estado": "MG",
        "latitude": -19.5919596,
        "longitude": -46.9475218,
        "tag": "colorcenter"
    },
    {
        "nome_estabelecimento": "Angeloni Supermercado",
        "endereco": "RUA FREI ROGÉRIO, 587, -",
        "bairro": "CENTRO",
        "cidade": "LAGES",
        "estado": "SC",
        "latitude": -27.8128036,
        "longitude": -50.3208725,
        "tag": "angeloni"
    },
    {
        "nome_estabelecimento": "Angeloni Supermercado",
        "endereco": "RUA BRUSQUE, 358, -",
        "bairro": "CENTRO",
        "cidade": "ITAJAÍ",
        "estado": "SC",
        "latitude": -26.9104638,
        "longitude": -48.6668171,
        "tag": "angeloni"
    },
    {
        "nome_estabelecimento": "Angeloni Supermercado",
        "endereco": "RUA DR.JOÃO COLIN, 2500, -",
        "bairro": "AMÉRICA",
        "cidade": "JOINVILLE",
        "estado": "SC",
        "latitude": -26.2783228,
        "longitude": -48.8490618,
        "tag": "angeloni"
    },
    {
        "nome_estabelecimento": "Angeloni Supermercado",
        "endereco": "RUA MINISTRO CALÓGERAS, 1639, -",
        "bairro": "-ANITA GARIBALDI",
        "cidade": "JOINVILLE",
        "estado": "SC",
        "latitude": -26.3110932,
        "longitude": -48.8546747,
        "tag": "angeloni"
    },
    {
        "nome_estabelecimento": "Angeloni Supermercado",
        "endereco": "R SETE DE SETEMBRO, 0, -",
        "bairro": "CENTRO",
        "cidade": "BLUMENAU",
        "estado": "SC",
        "latitude": -26.9139291,
        "longitude": -49.0762933,
        "tag": "angeloni"
    },
    {
        "nome_estabelecimento": "Angeloni Supermercado",
        "endereco": "AV. IRINEU BORNHAUSEN, 5228, -",
        "bairro": "AGRONÔMICA",
        "cidade": "FLORIANÓPOLIS",
        "estado": "SC",
        "latitude": -27.5732367,
        "longitude": -48.5388431,
        "tag": "angeloni"
    },
    {
        "nome_estabelecimento": "Angeloni Supermercado",
        "endereco": "RUA NIRBERTO HAASE, 75, -",
        "bairro": "SANTA MÔNICA",
        "cidade": "FLORIANÓPOLIS",
        "estado": "SC",
        "latitude": -27.5916756,
        "longitude": -48.5132913,
        "tag": "angeloni"
    },
    {
        "nome_estabelecimento": "Angeloni Supermercado",
        "endereco": "ALAMEDA DR. CARLOS DE CARVALHO, 2050, -",
        "bairro": "BATEL",
        "cidade": "CURITIBA",
        "estado": "PR",
        "latitude": -25.4386238,
        "longitude": -49.2952692,
        "tag": "angeloni"
    },
    {
        "nome_estabelecimento": "Angeloni Supermercado",
        "endereco": "R: BOCAIUVA, 1600, -",
        "bairro": "CENTRO",
        "cidade": "FLORIANÓPOLIS",
        "estado": "SC",
        "latitude": -27.5843813,
        "longitude": -48.5453244,
        "tag": "angeloni"
    },
    {
        "nome_estabelecimento": "Angeloni Supermercado",
        "endereco": "RODOVIA SC 401, 1484, -",
        "bairro": "JOÃO PAULO",
        "cidade": "FLORIANÓPOLIS",
        "estado": "SC",
        "latitude": -27.5528305,
        "longitude": -48.4999064,
        "tag": "angeloni"
    },
    {
        "nome_estabelecimento": "Angeloni Supermercado",
        "endereco": "RUA HOEPCKE, 168, -",
        "bairro": "CENTRO",
        "cidade": "FLORIANÓPOLIS",
        "estado": "SC",
        "latitude": -27.5942109,
        "longitude": -48.5594872,
        "tag": "angeloni"
    },
    {
        "nome_estabelecimento": "Angeloni Supermercado",
        "endereco": "RUA CORONEL BERNARDO GRUBBA, 247, -",
        "bairro": "CENTRO",
        "cidade": "JARAGUÁ DO SUL",
        "estado": "SC",
        "latitude": -26.4774156,
        "longitude": -49.0909395,
        "tag": "angeloni"
    },
    {
        "nome_estabelecimento": "Angeloni Supermercado",
        "endereco": "R QUINZE DE NOVEMBRO , 2900, -",
        "bairro": "CENTRO",
        "cidade": "SÃO JOSÉ DOS PINHAIS",
        "estado": "PR",
        "latitude": -25.5417114,
        "longitude": -49.1931935,
        "tag": "angeloni"
    },
    {
        "nome_estabelecimento": "Angeloni Supermercado",
        "endereco": "AVENIDA GETULIO VARGAS, 1259, -",
        "bairro": "URUSSANGUINHA",
        "cidade": "ARARANGUÁ",
        "estado": "SC",
        "latitude": -28.9411325,
        "longitude": -49.4749705,
        "tag": "angeloni"
    },
    {
        "nome_estabelecimento": "Angeloni Supermercado",
        "endereco": "RUA PE AGOSTINHO, 2885, -",
        "bairro": "BIGORRILHO",
        "cidade": "CURITIBA",
        "estado": "PR",
        "latitude": -25.4347551,
        "longitude": -49.3069964,
        "tag": "angeloni"
    },
    {
        "nome_estabelecimento": "Angeloni Supermercado 7",
        "endereco": "AVENIDA REPÚBLICA ARGENTINA, 900, -",
        "bairro": "VILA IZABEL",
        "cidade": "CURITIBA",
        "estado": "PR",
        "latitude": -25.45437,
        "longitude": -49.2887513,
        "tag": "angeloni"
    },
    {
        "nome_estabelecimento": "Arco-mix Supermercado Várzea",
        "endereco": "AVENIDA AFONSO OLINDENSE, 2032, .",
        "bairro": "VÁRZEA",
        "cidade": "RECIFE",
        "estado": "PE",
        "latitude": -8.0486252,
        "longitude": -34.9599751,
        "tag": "arcomixsupermercado"
    },
    {
        "nome_estabelecimento": "Armarinhos 25",
        "endereco": "AVENIDA DE SANTA CRUZ, 4175, .",
        "bairro": "BANGU",
        "cidade": "RIO DE JANEIRO",
        "estado": "RJ",
        "latitude": -22.8770628,
        "longitude": -43.4729581,
        "tag": "armarinhosvintecinco"
    },
    {
        "nome_estabelecimento": "Armarinhos 25 Caxias",
        "endereco": "AVENIDA GOVERNADOR LEONEL DE MOURA BRIZOLA, 1265, .",
        "bairro": "CENTRO",
        "cidade": "DUQUE DE CAXIAS",
        "estado": "RJ",
        "latitude": -22.7936795,
        "longitude": -43.3072178,
        "tag": "armarinhosvintecinco"
    },
    {
        "nome_estabelecimento": "Armarinhos 25 Copacabana",
        "endereco": "RUA BARATA RIBEIRO, 503, .",
        "bairro": "COPACABANA",
        "cidade": "RIO DE JANEIRO",
        "estado": "RJ",
        "latitude": -22.9653619,
        "longitude": -43.1807344,
        "tag": "armarinhosvintecinco"
    },
    {
        "nome_estabelecimento": "Assaí 01",
        "endereco": "RUA MANILHA, 42, -",
        "bairro": "VILA CARRÃO",
        "cidade": "SÃO PAULO",
        "estado": "SP",
        "latitude": -23.551013,
        "longitude": -46.527182,
        "tag": "assai"
    },
    {
        "nome_estabelecimento": "Assaí 03",
        "endereco": "AVENIDA MARECHAL TITO, 1300, -",
        "bairro": "SÃO MIGUEL PAULISTA",
        "cidade": "SÃO PAULO",
        "estado": "SP",
        "latitude": -23.4935427,
        "longitude": -46.4428114,
        "tag": "assai"
    },
    {
        "nome_estabelecimento": "Assaí 08",
        "endereco": "AVENIDA PROFESSOR FRANCISCO MORATO, 4367, -",
        "bairro": "VILA SÔNIA",
        "cidade": "SÃO PAULO",
        "estado": "SP",
        "latitude": -23.5959281,
        "longitude": -46.7374925,
        "tag": "assai"
    },
    {
        "nome_estabelecimento": "Assaí 10",
        "endereco": "AVENIDA PIRAPORINHA, 680, -",
        "bairro": "PLANALTO",
        "cidade": "SÃO BERNARDO DO CAMPO",
        "estado": "SP",
        "latitude": -23.6897062,
        "longitude": -46.5739337,
        "tag": "assai"
    },
    {
        "nome_estabelecimento": "Assaí 106",
        "endereco": "AV.DO AEROPORTO, 13, -",
        "bairro": "JARDIM BAHIA",
        "cidade": "PAULO AFONSO",
        "estado": "BA",
        "latitude": -9.3986919,
        "longitude": -38.2389884,
        "tag": "assai"
    },
    {
        "nome_estabelecimento": "Assaí 108",
        "endereco": "AVENIDA JOÃO CÉSAR DE OLIVEIRA, 4321, -",
        "bairro": "NOVO ELDORADO",
        "cidade": "CONTAGEM",
        "estado": "MG",
        "latitude": -19.937877,
        "longitude": -44.0604854,
        "tag": "assai"
    },
    {
        "nome_estabelecimento": "Assaí 112",
        "endereco": "RODOVIA REGIS BITTENCOURT, 3040, -",
        "bairro": "CENTRO",
        "cidade": "TABOÃO DA SERRA",
        "estado": "SP",
        "latitude": -23.6078471,
        "longitude": -46.7524019,
        "tag": "assai"
    },
    {
        "nome_estabelecimento": "Assaí 114",
        "endereco": "AVENIDA DÃO SILVEIRA, S/N, -",
        "bairro": "PITIMBU",
        "cidade": "NATAL",
        "estado": "RN",
        "latitude": -5.8729826,
        "longitude": -35.2206468,
        "tag": "assai"
    },
    {
        "nome_estabelecimento": "Assaí 116",
        "endereco": "RUA SIMEÃO AGUIAR, 430, -",
        "bairro": "JOSÉ CONRADO DE ARAÚJO",
        "cidade": "ARACAJU",
        "estado": "SE",
        "latitude": -10.9070021,
        "longitude": -37.0878374,
        "tag": "assai"
    },
    {
        "nome_estabelecimento": "Assaí 118",
        "endereco": "RODOVIA MÁRIO COVAS, 69, -",
        "bairro": "COQUEIRO",
        "cidade": "BELÉM",
        "estado": "PA",
        "latitude": -1.3588713,
        "longitude": -48.4292468,
        "tag": "assai"
    },
    {
        "nome_estabelecimento": "Assaí 119",
        "endereco": "AVENIDA DOUTOR BELMINO CORREIA, 681, -",
        "bairro": "BAIRRO NOVO DO CARMELO",
        "cidade": "CAMARAGIBE",
        "estado": "PE",
        "latitude": -8.0198925,
        "longitude": -34.9714071,
        "tag": "assai"
    },
    {
        "nome_estabelecimento": "Assaí 12",
        "endereco": "RUA QUINZE DE NOVEMBRO, 430, -",
        "bairro": "CENTRO",
        "cidade": "JUNDIAÍ",
        "estado": "SP",
        "latitude": -23.1032885,
        "longitude": -46.7279528,
        "tag": "assai"
    },
    {
        "nome_estabelecimento": "Assaí 122",
        "endereco": "AVENIDA AUTAZ MIRIM, 8755, -",
        "bairro": "NOVO ALEIXO",
        "cidade": "MANAUS",
        "estado": "AM",
        "latitude": -3.0403814,
        "longitude": -59.9439489,
        "tag": "assai"
    },
    {
        "nome_estabelecimento": "Assai 124",
        "endereco": "AVENIDA JACU-PÊSSEGO, 750, -",
        "bairro": "VILA JACUÍ",
        "cidade": "SÃO PAULO",
        "estado": "SP",
        "latitude": -23.5148691,
        "longitude": -46.4558727,
        "tag": "assai"
    },
    {
        "nome_estabelecimento": "Assaí 126",
        "endereco": "AV. RAIMUNDO PEREIRA DE MAGALHÃES, 10535, -",
        "bairro": "JARDIM LIDER",
        "cidade": "SÃO PAULO",
        "estado": "SP",
        "latitude": -23.4489702,
        "longitude": -46.7225909,
        "tag": "assai"
    },
    {
        "nome_estabelecimento": "Assaí 128",
        "endereco": "AVENIDA DOM HÉLDER CÂMARA, 6350, .",
        "bairro": "CACHAMBI",
        "cidade": "RIO DE JANEIRO",
        "estado": "RJ",
        "latitude": -22.8871592,
        "longitude": -43.2813903,
        "tag": "assai"
    },
    {
        "nome_estabelecimento": "Assaí 133",
        "endereco": "AVENIDA AYRTON SENNA, 6000, .",
        "bairro": "JACAREPAGUÁ",
        "cidade": "RIO DE JANEIRO",
        "estado": "RJ",
        "latitude": -22.9592262,
        "longitude": -43.3556061,
        "tag": "assai"
    },
    {
        "nome_estabelecimento": "Assaí 134",
        "endereco": "AV. JOSÉ FRANCISCO DE ALMEIDA NETO, 11, -",
        "bairro": "SÃO RAIMUNDO",
        "cidade": "TERESINA",
        "estado": "PI",
        "latitude": -5.104666,
        "longitude": -42.7690613,
        "tag": "assai"
    },
    {
        "nome_estabelecimento": "Assaí 136",
        "endereco": "AVENIDA BRASIL, 2251, -",
        "bairro": "BENFICA",
        "cidade": "RIO DE JANEIRO",
        "estado": "RJ",
        "latitude": -22.8871773,
        "longitude": -43.230725,
        "tag": "assai"
    },
    {
        "nome_estabelecimento": "Assaí 139",
        "endereco": "AVENIDA JORGE AMADO, S/N, -",
        "bairro": "RESERVA CAMASSARYS",
        "cidade": "CAMAÇARI",
        "estado": "BA",
        "latitude": -12.6965229,
        "longitude": -38.2931219,
        "tag": "assai"
    },
    {
        "nome_estabelecimento": "Assaí 14",
        "endereco": "AVENIDA PRESIDENTE CASTELO BRANCO, 2395, -",
        "bairro": "PARQUE INDUSTRIAL LAGOINHA",
        "cidade": "RIBEIRÃO PRETO",
        "estado": "SP",
        "latitude": -21.2017081,
        "longitude": -47.7633228,
        "tag": "assai"
    },
    {
        "nome_estabelecimento": "Assaí 140",
        "endereco": "AVENIDA PERIMETRAL NORTE, 2609, -",
        "bairro": "VILA JOÃO VAZ",
        "cidade": "GOIÂNIA",
        "estado": "GO",
        "latitude": -16.6510847,
        "longitude": -49.3164483,
        "tag": "assai"
    },
    {
        "nome_estabelecimento": "Assaí 142",
        "endereco": "RODOVIA PRESIDENTE DUTRA, 10521, -",
        "bairro": "BNH",
        "cidade": "MESQUITA",
        "estado": "RJ",
        "latitude": -22.7777526,
        "longitude": -43.3972474,
        "tag": "assai"
    },
    {
        "nome_estabelecimento": "Assaí 144",
        "endereco": "AV. ARICANDUVA, 5555, -",
        "bairro": "VILA ARICANDUVA",
        "cidade": "SÃO PAULO",
        "estado": "SP",
        "latitude": -23.5358102,
        "longitude": -46.5473959,
        "tag": "assai"
    },
    {
        "nome_estabelecimento": "Assaí 146",
        "endereco": "AV. EPHIGENIO SALLES, 2045, -",
        "bairro": "ALEIXO",
        "cidade": "MANAUS",
        "estado": "AM",
        "latitude": -3.0908185,
        "longitude": -59.9910001,
        "tag": "assai"
    },
    {
        "nome_estabelecimento": "Assaí 151",
        "endereco": "AVENIDA ALZIRO SOARES, 20, -",
        "bairro": "NÚCLEO MICRO INDUSTRIAL PRESIDENTE WILSON",
        "cidade": "JANDIRA",
        "estado": "SP",
        "latitude": -23.5276803,
        "longitude": -46.8937738,
        "tag": "assai"
    },
    {
        "nome_estabelecimento": "Assaí 153",
        "endereco": "AVENIDA RAGUEB CHOHFI, 58, -",
        "bairro": "SÃO MATEUS",
        "cidade": "SÃO PAULO",
        "estado": "SP",
        "latitude": -23.6114455,
        "longitude": -46.4741158,
        "tag": "assai"
    },
    {
        "nome_estabelecimento": "Assaí 154",
        "endereco": "AVENIDA SENADOR SARAIVA, 835, -",
        "bairro": "CENTRO",
        "cidade": "CAMPINAS",
        "estado": "SP",
        "latitude": -22.9041226,
        "longitude": -47.0651901,
        "tag": "assai"
    },
    {
        "nome_estabelecimento": "Assaí 158",
        "endereco": "AVENIDA RONDON PACHECO, 755, -",
        "bairro": "TABAJARAS",
        "cidade": "UBERLÂNDIA",
        "estado": "MG",
        "latitude": -18.9297973,
        "longitude": -48.2846239,
        "tag": "assai"
    },
    {
        "nome_estabelecimento": "Assaí 160",
        "endereco": "RUA DIAS DA CRUZ, 371, -",
        "bairro": "MÉIER",
        "cidade": "RIO DE JANEIRO",
        "estado": "RJ",
        "latitude": -22.9030455,
        "longitude": -43.2825633,
        "tag": "assai"
    },
    {
        "nome_estabelecimento": "Assaí 161",
        "endereco": "AVENIDA ANTÔNIA ROSA FIORAVANTI, 3270, -",
        "bairro": "JARDIM ROSINA",
        "cidade": "MAUÁ",
        "estado": "SP",
        "latitude": -23.6630564,
        "longitude": -46.4600985,
        "tag": "assai"
    },
    {
        "nome_estabelecimento": "Assaí 162",
        "endereco": "AVENIDA SAUL ELKIND, 2211, -",
        "bairro": "CONJUNTO VIVI XAVIER",
        "cidade": "LONDRINA",
        "estado": "PR",
        "latitude": -23.2599909,
        "longitude": -51.1600193,
        "tag": "assai"
    },
    {
        "nome_estabelecimento": "Assaí 163",
        "endereco": "AVENIDA JOÃO DE BARROS, S/N, -",
        "bairro": "PETRÓPOLIS",
        "cidade": "CARUARU",
        "estado": "PE",
        "latitude": -8.2965817,
        "longitude": -35.9760384,
        "tag": "assai"
    },
    {
        "nome_estabelecimento": "Assaí 166",
        "endereco": "AVENIDA SANTA CATARINA, 1672, -",
        "bairro": "VILA MASCOTE",
        "cidade": "SÃO PAULO",
        "estado": "SP",
        "latitude": -23.6476557,
        "longitude": -46.6624679,
        "tag": "assai"
    },
    {
        "nome_estabelecimento": "Assaí 167",
        "endereco": "RUA REGENTE FEIJO , 823, -",
        "bairro": "CENTRO",
        "cidade": "PIRACICABA",
        "estado": "SP",
        "latitude": -22.7207497,
        "longitude": -47.6461144,
        "tag": "assai"
    },
    {
        "nome_estabelecimento": "Assaí 169",
        "endereco": "AVENIDA PRESIDENTE GETÚLIO VARGAS, 5600, -",
        "bairro": "IANETAMA",
        "cidade": "CASTANHAL",
        "estado": "PA",
        "latitude": -1.2955906,
        "longitude": -47.907949,
        "tag": "assai"
    },
    {
        "nome_estabelecimento": "Assaí 17",
        "endereco": "AVENIDA SAPOPEMBA, 9250, -",
        "bairro": "JARDIM PLANALTO",
        "cidade": "SÃO PAULO",
        "estado": "SP",
        "latitude": -23.6024959,
        "longitude": -46.5112459,
        "tag": "assai"
    },
    {
        "nome_estabelecimento": "Assaí 175",
        "endereco": "RUA DA BEIRA, 6881, -",
        "bairro": "LAGOA",
        "cidade": "PORTO VELHO",
        "estado": "RO",
        "latitude": -8.7805077,
        "longitude": -63.8642606,
        "tag": "assai"
    },
    {
        "nome_estabelecimento": "Assaí 178",
        "endereco": "AVENIDA FRANCISCO DE PAULA LEITE, 2242, -",
        "bairro": "PARQUE DAS NAÇÕES",
        "cidade": "INDAIATUBA",
        "estado": "SP",
        "latitude": -23.1032082,
        "longitude": -47.2169117,
        "tag": "assai"
    },
    {
        "nome_estabelecimento": "Assaí 183",
        "endereco": "AVENIDA MELÍCIO MACHADO,  240 , -",
        "bairro": "AEROPORTO",
        "cidade": "ARACAJU",
        "estado": "SE",
        "latitude": -10.9895853,
        "longitude": -37.0619765,
        "tag": "assai"
    },
    {
        "nome_estabelecimento": "Assaí 184",
        "endereco": "BR 407, S/N, -",
        "bairro": "MARISTA",
        "cidade": "SENHOR DO BONFIM",
        "estado": "BA",
        "latitude": -10.4617756,
        "longitude": -40.1756097,
        "tag": "assai"
    },
    {
        "nome_estabelecimento": "Assaí 186",
        "endereco": "BR-343, S/N, -",
        "bairro": "SABIAZAL",
        "cidade": "PARNAÍBA",
        "estado": "PI",
        "latitude": -2.9553049,
        "longitude": -41.7581322,
        "tag": "assai"
    },
    {
        "nome_estabelecimento": "Assaí 187",
        "endereco": "PA-275, S/N, -",
        "bairro": "CIDADE NOVA",
        "cidade": "PARAUAPEBAS",
        "estado": "BA",
        "latitude": -6.0637438,
        "longitude": -49.9191285,
        "tag": "assai"
    },
    {
        "nome_estabelecimento": "Assaí 188",
        "endereco": "AVENIDA DOUTOR NILO PEÇANHA, 479, -",
        "bairro": "PARQUE SANTO AMARO",
        "cidade": "CAMPOS DOS GOYTACAZES",
        "estado": "RJ",
        "latitude": -21.765435,
        "longitude": -41.329884,
        "tag": "assai"
    },
    {
        "nome_estabelecimento": "Assaí 189",
        "endereco": "BR-116, 320, -",
        "bairro": "CIDADE DOS FUNCIONÁRIOS",
        "cidade": "FORTALEZA",
        "estado": "CE",
        "latitude": -3.7876923,
        "longitude": -38.5106262,
        "tag": "assai"
    },
    {
        "nome_estabelecimento": "Assai 192",
        "endereco": "AVENIDA FERNANDO CORREA DA COSTA, 1255, -",
        "bairro": "JARDIM DAS AMÉRICAS",
        "cidade": "CUIABÁ",
        "estado": "MT",
        "latitude": -15.6081526,
        "longitude": -56.078275,
        "tag": "assai"
    },
    {
        "nome_estabelecimento": "Assaí 194",
        "endereco": "AV. UNIVERSITÁRIA, 765 , -",
        "bairro": "JARDIM BANDEIRANTE",
        "cidade": "ANÁPOLIS",
        "estado": "GO",
        "latitude": -16.3124319,
        "longitude": -48.9513245,
        "tag": "assai"
    },
    {
        "nome_estabelecimento": "Assaí 195",
        "endereco": "AVENIDA JUSCELINO KUBITSCHEK DE OLIVEIRA, 2511, -",
        "bairro": "CIDADE INDUSTRIAL",
        "cidade": "CURITIBA",
        "estado": "PR",
        "latitude": -25.4544907,
        "longitude": -49.3596796,
        "tag": "assai"
    },
    {
        "nome_estabelecimento": "Assai 198",
        "endereco": "RODOVIA PE-60, 2520, -",
        "bairro": "GARAPU",
        "cidade": "CABO DE SANTO AGOSTINHO",
        "estado": "PE",
        "latitude": -8.3020073,
        "longitude": -35.0230576,
        "tag": "assai"
    },
    {
        "nome_estabelecimento": "Assaí 200 - Jundiaí Ferroviários Fox",
        "endereco": "AVENIDA UNIÃO DOS FERROVIÁRIOS, 2940, .",
        "bairro": "PONTE DE CAMPINAS",
        "cidade": "JUNDIAÍ",
        "estado": "SP",
        "latitude": -23.1878008,
        "longitude": -46.8787905,
        "tag": "assai"
    },
    {
        "nome_estabelecimento": "Assai 204",
        "endereco": "AVENIDA RECIFE, 5777, -",
        "bairro": "JARDIM SÃO PAULO",
        "cidade": "RECIFE",
        "estado": "PE",
        "latitude": -8.0777965,
        "longitude": -34.9361491,
        "tag": "assai"
    },
    {
        "nome_estabelecimento": "Assai 205",
        "endereco": "AVENIDA PEREIRA BARRETO, 2444, -",
        "bairro": "PARAÍSO",
        "cidade": "SANTO ANDRÉ",
        "estado": "SP",
        "latitude": -23.6688015,
        "longitude": -46.533106,
        "tag": "assai"
    },
    {
        "nome_estabelecimento": "Assai 210",
        "endereco": "AVENIDA TORQUATO TAPAJÓS, 2200, -",
        "bairro": "FLORES",
        "cidade": "MANAUS",
        "estado": "AM",
        "latitude": -3.0545776,
        "longitude": -60.0233121,
        "tag": "assai"
    },
    {
        "nome_estabelecimento": "Assai 211",
        "endereco": "RUA DOUTOR ALBERTO TORRES, SN, -",
        "bairro": "PORTO VELHO",
        "cidade": "SÃO GONÇALO",
        "estado": "RJ",
        "latitude": -22.8411717,
        "longitude": -43.0907014,
        "tag": "assai"
    },
    {
        "nome_estabelecimento": "Assai 213",
        "endereco": "AVENIDA JUIZ MARCO TÚLIO ISAAC, 3355, -",
        "bairro": "PARQUE DAS INDÚSTRIAS",
        "cidade": "BETIM",
        "estado": "MG",
        "latitude": -19.9564975,
        "longitude": -44.1712609,
        "tag": "assai"
    },
    {
        "nome_estabelecimento": "Assai 214",
        "endereco": "AVENIDA SANTO AMARO, 1697, -",
        "bairro": "SOLAR DE CALDAS NOVAS",
        "cidade": "CALDAS NOVAS",
        "estado": "GO",
        "latitude": -17.7216729,
        "longitude": -48.6407125,
        "tag": "assai"
    },
    {
        "nome_estabelecimento": "Assai 219",
        "endereco": "RODOVIA WASHINGTON LUIZ, SN, -",
        "bairro": "CHÁCARAS RIO-PETRÓPOLIS",
        "cidade": "DUQUE DE CAXIAS",
        "estado": "RJ",
        "latitude": -22.6604829,
        "longitude": -43.284565,
        "tag": "assai"
    },
    {
        "nome_estabelecimento": "Assaí 22",
        "endereco": "AVENIDA JAGUARÉ, 925, -",
        "bairro": "JAGUARÉ",
        "cidade": "SÃO PAULO",
        "estado": "SP",
        "latitude": -23.5516173,
        "longitude": -46.7423968,
        "tag": "assai"
    },
    {
        "nome_estabelecimento": "Assai 222",
        "endereco": "AVENIDA DOS IMIGRANTES, 4045, -",
        "bairro": "INDUSTRIAL",
        "cidade": "PORTO VELHO",
        "estado": "RO",
        "latitude": -8.7373746,
        "longitude": -63.8786517,
        "tag": "assai"
    },
    {
        "nome_estabelecimento": "Assai 225",
        "endereco": "AVENIDA EDUARDO FRÓES DA MOTA, 2500, -",
        "bairro": "TOMBA",
        "cidade": "FEIRA DE SANTANA",
        "estado": "BA",
        "latitude": -12.2829408,
        "longitude": -38.9467738,
        "tag": "assai"
    },
    {
        "nome_estabelecimento": "Assai 234",
        "endereco": "RUA MIGUEL GURGEL, 1900, -",
        "bairro": "COAÇU",
        "cidade": "FORTALEZA",
        "estado": "CE",
        "latitude": -3.8402432,
        "longitude": -38.482458,
        "tag": "assai"
    },
    {
        "nome_estabelecimento": "Assai 235",
        "endereco": "AVENIDA CONSELHEIRO FURTADO, 76, -",
        "bairro": "BATISTA CAMPOS",
        "cidade": "BELÉM",
        "estado": "PA",
        "latitude": -1.4614788,
        "longitude": -48.4936557,
        "tag": "assai"
    },
    {
        "nome_estabelecimento": "Assai 238",
        "endereco": "AVENIDA PRESIDENTE KENNEDY, 2800, -",
        "bairro": "PEIXINHOS",
        "cidade": "OLINDA",
        "estado": "PE",
        "latitude": -8.0141077,
        "longitude": -34.8707271,
        "tag": "assai"
    },
    {
        "nome_estabelecimento": "Assai 240",
        "endereco": "AVENIDA PRESIDENTE CASTELO BRANCO, 50, -",
        "bairro": "JARDIM CASTELO BRANCO",
        "cidade": "RIBEIRÃO PRETO",
        "estado": "SP",
        "latitude": -21.1891421,
        "longitude": -47.7842094,
        "tag": "assai"
    },
    {
        "nome_estabelecimento": "Assai 242",
        "endereco": "AVENIDA CLÉRISTON ANDRADE, 1897, -",
        "bairro": "SÃO MIGUEL",
        "cidade": "BARREIRAS",
        "estado": "BA",
        "latitude": -12.1423415,
        "longitude": -44.9804314,
        "tag": "assai"
    },
    {
        "nome_estabelecimento": "Assai 243",
        "endereco": "RUA DO SALETE, 30, -",
        "bairro": "BARRIS",
        "cidade": "SALVADOR",
        "estado": "BA",
        "latitude": -12.9856028,
        "longitude": -38.5155886,
        "tag": "assai"
    },
    {
        "nome_estabelecimento": "Assai 244",
        "endereco": "AVENIDA ANTONIO FAZANARO, 95, -",
        "bairro": "PAULICÉIA",
        "cidade": "PIRACICABA",
        "estado": "SP",
        "latitude": -22.7474552,
        "longitude": -47.6347594,
        "tag": "assai"
    },
    {
        "nome_estabelecimento": "Assai 245",
        "endereco": "AVENIDA DAS AMÉRICAS, 900, -",
        "bairro": "BARRA DA TIJUCA",
        "cidade": "RIO DE JANEIRO",
        "estado": "RJ",
        "latitude": -23.0019741,
        "longitude": -43.3234922,
        "tag": "assai"
    },
    {
        "nome_estabelecimento": "Assai 246",
        "endereco": "VIA ANTÔNIO CRUANES FILHO, 4750, -",
        "bairro": "JARDIM COLINAS DE SÃO JOÃO",
        "cidade": "LIMEIRA",
        "estado": "SP",
        "latitude": -22.5872583,
        "longitude": -47.3906007,
        "tag": "assai"
    },
    {
        "nome_estabelecimento": "Assai 247",
        "endereco": "AVENIDA PEDRO LINHARES GOMES, 5765, -",
        "bairro": "INDUSTRIAL",
        "cidade": "IPATINGA",
        "estado": "MG",
        "latitude": -19.4902958,
        "longitude": -42.5617288,
        "tag": "assai"
    },
    {
        "nome_estabelecimento": "Assai 252",
        "endereco": "AVENIDA ALMIRANTE BARROSO, 5386, -",
        "bairro": "CASTANHEIRA",
        "cidade": "BELÉM",
        "estado": "PA",
        "latitude": -1.4055897,
        "longitude": -48.4334511,
        "tag": "assai"
    },
    {
        "nome_estabelecimento": "Assai 255",
        "endereco": "RUA SILVEIRA MARTINS, 119, -",
        "bairro": "CABULA",
        "cidade": "SALVADOR",
        "estado": "BA",
        "latitude": -12.959784,
        "longitude": -38.4511787,
        "tag": "assai"
    },
    {
        "nome_estabelecimento": "Assai 256",
        "endereco": "AVENIDA VASCO DA GAMA, 4049, -",
        "bairro": "FEDERAÇÃO",
        "cidade": "SALVADOR",
        "estado": "BA",
        "latitude": -12.9913703,
        "longitude": -38.5022779,
        "tag": "assai"
    },
    {
        "nome_estabelecimento": "Assai 257",
        "endereco": "AVENIDA PRESIDENTE KENNEDY, 1000, -",
        "bairro": "ÁGUA VERDE",
        "cidade": "CURITIBA",
        "estado": "PR",
        "latitude": -25.4578632,
        "longitude": -49.270567,
        "tag": "assai"
    },
    {
        "nome_estabelecimento": "Assai 258",
        "endereco": "AVENIDA SALGADO FILHO, 1301, -",
        "bairro": "CENTRO",
        "cidade": "GUARULHOS",
        "estado": "SP",
        "latitude": -23.4544038,
        "longitude": -46.5350637,
        "tag": "assai"
    },
    {
        "nome_estabelecimento": "Assai 259",
        "endereco": "AVENIDA MARECHAL HUMBERTO DE ALENCAR CASTELO BRANCO, 230, -",
        "bairro": "CRISTO REI",
        "cidade": "CURITIBA",
        "estado": "PR",
        "latitude": -25.4300139,
        "longitude": -49.2413483,
        "tag": "assai"
    },
    {
        "nome_estabelecimento": "Assai 260",
        "endereco": "RUA JAVARI, 403, -",
        "bairro": "MOOCA",
        "cidade": "SÃO PAULO",
        "estado": "SP",
        "latitude": -23.5538036,
        "longitude": -46.6009577,
        "tag": "assai"
    },
    {
        "nome_estabelecimento": "Assai 262",
        "endereco": "AVENIDA ENGENHEIRO DOMINGOS FERREIRA, 1818, -",
        "bairro": "BOA VIAGEM",
        "cidade": "RECIFE",
        "estado": "PE",
        "latitude": -8.1046741,
        "longitude": -34.8899181,
        "tag": "assai"
    },
    {
        "nome_estabelecimento": "Assai 263",
        "endereco": "RUA SENHORA MARIA APARECIDA PESSUTTI MILEGO, 250, -",
        "bairro": "PARQUE CAMPOLIM",
        "cidade": "SOROCABA",
        "estado": "SP",
        "latitude": -23.5303151,
        "longitude": -47.4646287,
        "tag": "assai"
    },
    {
        "nome_estabelecimento": "Assai 265",
        "endereco": "AVENIDA PREFEITO CARLOS FERREIRA LOPES, 600, -",
        "bairro": "VILA MOGILAR",
        "cidade": "MOGI DAS CRUZES",
        "estado": "SP",
        "latitude": -23.5163802,
        "longitude": -46.188203,
        "tag": "assai"
    },
    {
        "nome_estabelecimento": "Assai 266",
        "endereco": "AVENIDA PRESIDENTE KENNEDY, 429, -",
        "bairro": "CENTRO",
        "cidade": "SÃO GONÇALO",
        "estado": "RJ",
        "latitude": -22.8235872,
        "longitude": -43.0489952,
        "tag": "assai"
    },
    {
        "nome_estabelecimento": "Assai 267",
        "endereco": "AVENIDA JORGE ZARUR, 100, -",
        "bairro": "JARDIM AQUÁRIUS",
        "cidade": "SÃO JOSÉ DOS CAMPOS",
        "estado": "SP",
        "latitude": -23.2072138,
        "longitude": -45.9063255,
        "tag": "assai"
    },
    {
        "nome_estabelecimento": "Assai 268",
        "endereco": "AVENIDA MARIA LACERDA MONTENEGRO, 900, -",
        "bairro": "NOVA PARNAMIRIM",
        "cidade": "PARNAMIRIM",
        "estado": "RN",
        "latitude": -5.8841519,
        "longitude": -35.2130595,
        "tag": "assai"
    },
    {
        "nome_estabelecimento": "Assaí 33",
        "endereco": "RODOVIA BR-222, 6970, -",
        "bairro": "TABAPUÁ",
        "cidade": "CAUCAIA",
        "estado": "CE",
        "latitude": -3.7412488,
        "longitude": -38.6028124,
        "tag": "assai"
    },
    {
        "nome_estabelecimento": "Assaí 35",
        "endereco": "RUA DOUTOR ALFREDO BACKER, 605, -",
        "bairro": "MUTONDO",
        "cidade": "SÃO GONÇALO",
        "estado": "RJ",
        "latitude": -22.8177718,
        "longitude": -43.0190468,
        "tag": "assai"
    },
    {
        "nome_estabelecimento": "Assaí 36",
        "endereco": "AVENIDA GETÚLIO DE MOURA, 1983, -",
        "bairro": "CENTRO",
        "cidade": "NILÓPOLIS",
        "estado": "RJ",
        "latitude": -22.8099998,
        "longitude": -43.4143416,
        "tag": "assai"
    },
    {
        "nome_estabelecimento": "Assaí 38",
        "endereco": "AVENIDA PRESIDENTE KENNEDY, 9271, -",
        "bairro": "MIRIM",
        "cidade": "PRAIA GRANDE",
        "estado": "SP",
        "latitude": -24.0300689,
        "longitude": -46.4907634,
        "tag": "assai"
    },
    {
        "nome_estabelecimento": "Assaí 39",
        "endereco": "AVENIDA RUY RODRIGUEZ, 1400, -",
        "bairro": "JARDIM NOVO CAMPOS ELÍSEOS",
        "cidade": "CAMPINAS",
        "estado": "SP",
        "latitude": -22.9540732,
        "longitude": -47.1162832,
        "tag": "assai"
    },
    {
        "nome_estabelecimento": "Assaí 41",
        "endereco": "RUA BENJAMIN CONSTANT, 263, -",
        "bairro": "LARGO DO BARRADAS",
        "cidade": "NITERÓI",
        "estado": "RJ",
        "latitude": -22.8743478,
        "longitude": -43.1067257,
        "tag": "assai"
    },
    {
        "nome_estabelecimento": "Carrefour - Alcântara",
        "endereco": "RUA DOUTOR ALFREDO BACKER, 500, -",
        "bairro": "MUTONDO",
        "cidade": "SÃO GONÇALO",
        "estado": "RJ",
        "latitude": -22.8177718,
        "longitude": -43.0190468,
        "tag": "carrefour"
    },
    {
        "nome_estabelecimento": "Carrefour - Alcantara - São Gonçalo",
        "endereco": "R. Dr. Alfredo Backer, 500",
        "bairro": "Alcantara",
        "cidade": "SÃO GONÇALO",
        "estado": "RJ",
        "latitude": -22.8200363,
        "longitude": -43.00462,
        "tag": "carrefour"
    },
    {
        "nome_estabelecimento": "Carrefour - Anália Franco",
        "endereco": "AVENIDA REGENTE FEIJÓ , 1759, -",
        "bairro": "JARDIM ANÁLIA FRANCO",
        "cidade": "SÃO PAULO",
        "estado": "SP",
        "latitude": -23.560321,
        "longitude": -46.5600912,
        "tag": "carrefour"
    },
    {
        "nome_estabelecimento": "Carrefour - Aricanduva",
        "endereco": "AVENIDA RIO DAS PEDRAS, 555, -",
        "bairro": "JARDIM ARICANDUVA",
        "cidade": "SÃO PAULO",
        "estado": "SP",
        "latitude": -23.559557,
        "longitude": -46.5159273,
        "tag": "carrefour"
    },
    {
        "nome_estabelecimento": "Carrefour - Barra",
        "endereco": "AVENIDA DAS AMÉRICAS, 5150, -",
        "bairro": "BARRA DA TIJUCA",
        "cidade": "RIO DE JANEIRO",
        "estado": "RJ",
        "latitude": -22.9972946,
        "longitude": -43.3622252,
        "tag": "carrefour"
    },
    {
        "nome_estabelecimento": "Carrefour - Belo Horizonte - Pampulha",
        "endereco": "Avenida Presidente Carlos Luz, 4055",
        "bairro": "Engenho Nogueira",
        "cidade": "BELO HORIZONTE",
        "estado": "MG",
        "latitude": -19.8753889,
        "longitude": -43.9771529,
        "tag": "carrefour"
    },
    {
        "nome_estabelecimento": "Carrefour Bh América",
        "endereco": "AVENIDA DOS ANDRADAS, 3000, -",
        "bairro": "SANTA EFIGÊNIA",
        "cidade": "BELO HORIZONTE",
        "estado": "MG",
        "latitude": -19.9206961,
        "longitude": -43.9202377,
        "tag": "carrefour"
    },
    {
        "nome_estabelecimento": "Carrefour - Bh Shopping",
        "endereco": "RODOVIA BR 356, 3049, -",
        "bairro": "BELVEDERE",
        "cidade": "BELO HORIZONTE",
        "estado": "MG",
        "latitude": -19.9995318,
        "longitude": -43.9633381,
        "tag": "carrefour"
    },
    {
        "nome_estabelecimento": "Carrefour - Brooklin",
        "endereco": "AVENIDA SANTO AMARO, 4815, -",
        "bairro": "SANTO AMARO",
        "cidade": "SÃO PAULO",
        "estado": "SP",
        "latitude": -23.6252423,
        "longitude": -46.6863797,
        "tag": "carrefour"
    },
    {
        "nome_estabelecimento": "Carrefour - Butantã Sbp",
        "endereco": "AVENIDA PROFESSOR FRANCISCO MORATO, 2718, .",
        "bairro": "BUTANTÃ",
        "cidade": "SÃO PAULO",
        "estado": "SP",
        "latitude": -23.5769521,
        "longitude": -46.7078899,
        "tag": "carrefour"
    },
    {
        "nome_estabelecimento": "Carrefour Cambuci Lion",
        "endereco": "PRAÇA ALBERTO LION , 100, -",
        "bairro": "CAMBUCI",
        "cidade": "SÃO PAULO",
        "estado": "SP",
        "latitude": -23.5642243,
        "longitude": -46.6124583,
        "tag": "carrefour"
    },
    {
        "nome_estabelecimento": "Carrefour - Campo Grande 54",
        "endereco": "ESTRADA DAS CAPOEIRAS, 355, -",
        "bairro": "CAMPO GRANDE",
        "cidade": "RIO DE JANEIRO",
        "estado": "RJ",
        "latitude": -22.8909722,
        "longitude": -43.5595496,
        "tag": "carrefour"
    },
    {
        "nome_estabelecimento": "Carrefour - Canoas",
        "endereco": "RUA MATHIAS VELHO, 555, CANOAS",
        "bairro": "CENTRO",
        "cidade": "CANOAS",
        "estado": "RS",
        "latitude": -29.9101007,
        "longitude": -51.1863493,
        "tag": "carrefour"
    },
    {
        "nome_estabelecimento": "Carrefour - Casa Verde",
        "endereco": "RUA MARAMBAIA, 200, -",
        "bairro": "CASA VERDE",
        "cidade": "SÃO PAULO",
        "estado": "SP",
        "latitude": -23.5105862,
        "longitude": -46.6521264,
        "tag": "carrefour"
    },
    {
        "nome_estabelecimento": "Carrefour - Center Norte",
        "endereco": "AVENIDA MOYSÉS ROYSEN, S/N, -",
        "bairro": "VILA GUILHERME",
        "cidade": "SÃO PAULO",
        "estado": "SP",
        "latitude": -23.5174302,
        "longitude": -46.6188094,
        "tag": "carrefour"
    },
    {
        "nome_estabelecimento": "Carrefour- Central Praia Grande",
        "endereco": "AVENIDA PRESIDENTE CASTELO BRANCO, 1888, -",
        "bairro": "GUILHERMINA",
        "cidade": "PRAIA GRANDE",
        "estado": "SP",
        "latitude": -24.0145962,
        "longitude": -46.4256261,
        "tag": "carrefour"
    },
    {
        "nome_estabelecimento": "Carrefour - Champagnat",
        "endereco": "RUA DEPUTADO HEITOR ALENCAR FURTADO, 1210, -",
        "bairro": "MOSSUNGUÊ",
        "cidade": "CURITIBA",
        "estado": "PR",
        "latitude": -25.4375662,
        "longitude": -49.3314261,
        "tag": "carrefour"
    },
    {
        "nome_estabelecimento": "Carrefour Comércio E Industria Ltda",
        "endereco": "RUA VENEZUELA, 455, .",
        "bairro": "SION",
        "cidade": "BELO HORIZONTE",
        "estado": "MG",
        "latitude": -19.9522521,
        "longitude": -43.936382,
        "tag": "carrefour"
    },
    {
        "nome_estabelecimento": "Carrefour - Contagem - Riacho Das Pedras",
        "endereco": "Rodovia Fernão Dias , 3000",
        "bairro": "BR 381",
        "cidade": "CONTAGEM",
        "estado": "MG",
        "latitude": -19.9577816,
        "longitude": -44.0642277,
        "tag": "carrefour"
    },
    {
        "nome_estabelecimento": "Carrefour - Curitiba - Cabral",
        "endereco": "Avenida Parana, 1250",
        "bairro": "Cabral",
        "cidade": "CURITIBA",
        "estado": "PR",
        "latitude": -25.4026273,
        "longitude": -49.2482633,
        "tag": "carrefour"
    },
    {
        "nome_estabelecimento": "Carrefour - Curitiba - Portão",
        "endereco": "Avenida Presidente Arthur Bernardes, 2200",
        "bairro": "Portão",
        "cidade": "CURITIBA",
        "estado": "PR",
        "latitude": -25.4705629,
        "longitude": -49.2949288,
        "tag": "carrefour"
    },
    {
        "nome_estabelecimento": "Carrefour - Del Rey",
        "endereco": "AVENIDA PRESIDENTE CARLOS LUZ, 3001, -",
        "bairro": "CAIÇARAS",
        "cidade": "BELO HORIZONTE",
        "estado": "MG",
        "latitude": -19.8902883,
        "longitude": -43.9678891,
        "tag": "carrefour"
    },
    {
        "nome_estabelecimento": "Carrefour - Demarchi",
        "endereco": "AVENIDA MARIA SERVIDEI DEMARCHI, 398, -",
        "bairro": "DEMARCHI",
        "cidade": "SÃO BERNARDO DO CAMPO",
        "estado": "SP",
        "latitude": -23.7272217,
        "longitude": -46.5525082,
        "tag": "carrefour"
    },
    {
        "nome_estabelecimento": "Carrefour - Diadema",
        "endereco": "AV PRESIDENTE KENNEDY , 635, -",
        "bairro": "CENTRO",
        "cidade": "DIADEMA",
        "estado": "SP",
        "latitude": -23.6846216,
        "longitude": -46.6319695,
        "tag": "carrefour"
    },
    {
        "nome_estabelecimento": "Carrefour - Domingos Ferreira",
        "endereco": "R. FRANCISCO DA CUNHA, 919, -",
        "bairro": "BOA VIAGEM",
        "cidade": "RECIFE",
        "estado": "PE",
        "latitude": -8.1102755,
        "longitude": -34.8937496,
        "tag": "carrefour"
    },
    {
        "nome_estabelecimento": "Carrefour - Dom Pedro - Manaus",
        "endereco": "Avenida Pedro Teixeira, 241",
        "bairro": "Dom Pedro I",
        "cidade": "MANAUS",
        "estado": "AM",
        "latitude": -3.0855087,
        "longitude": -60.0310025,
        "tag": "carrefour"
    },
    {
        "nome_estabelecimento": "Carrefour - Fortaleza",
        "endereco": "AVENIDA GODOFREDO MACIEL, 3190, -",
        "bairro": "PARANGABA",
        "cidade": "FORTALEZA",
        "estado": "CE",
        "latitude": -3.7839973,
        "longitude": -38.5661355,
        "tag": "carrefour"
    },
    {
        "nome_estabelecimento": "Carrefour - Fortaleza Barão",
        "endereco": "AVENIDA BARÃO DE STUDART, 2200, -",
        "bairro": "JOAQUIM TÁVORA",
        "cidade": "FORTALEZA",
        "estado": "CE",
        "latitude": -3.7427063,
        "longitude": -38.5098244,
        "tag": "carrefour"
    },
    {
        "nome_estabelecimento": "Carrefour - Giovanni Gronchi",
        "endereco": "AVENIDA ALBERTO AUGUSTO ALVES, 50, -",
        "bairro": "VILA ANDRADE",
        "cidade": "SÃO PAULO",
        "estado": "SP",
        "latitude": -23.6420226,
        "longitude": -46.7344646,
        "tag": "carrefour"
    },
    {
        "nome_estabelecimento": "Carrefour - Goiânia Sul",
        "endereco": "AVENIDA DEPUTADO JAMEL CECÍLIO, 3900, -",
        "bairro": "JARDIM GOIÁS",
        "cidade": "GOIÂNIA",
        "estado": "GO",
        "latitude": -16.7035462,
        "longitude": -49.2423954,
        "tag": "carrefour"
    },
    {
        "nome_estabelecimento": "Carrefour - Gravataí",
        "endereco": "AVENIDA DORIVAL CÂNDIDO LUZ DE OLIVEIRA, 166, -",
        "bairro": "COHAB C",
        "cidade": "GRAVATAÍ",
        "estado": "RS",
        "latitude": -29.9357832,
        "longitude": -51.01648,
        "tag": "carrefour"
    },
    {
        "nome_estabelecimento": "Carrefour Guarujá - Programa Eee",
        "endereco": "AVENIDA DOM PEDRO I, 2131, .",
        "bairro": "ENSEADA",
        "cidade": "GUARUJÁ",
        "estado": "SP",
        "latitude": -23.9818242,
        "longitude": -46.2318177,
        "tag": "carrefour"
    },
    {
        "nome_estabelecimento": "Carrefour - Imigrantes",
        "endereco": "RUA RIBEIRO LACERDA , 940 , -",
        "bairro": "BOSQUE DA SAÚDE",
        "cidade": "SÃO PAULO",
        "estado": "SP",
        "latitude": -23.6187517,
        "longitude": -46.6238192,
        "tag": "carrefour"
    },
    {
        "nome_estabelecimento": "Carrefour - Jabaquara",
        "endereco": "AV ENG GEORGE CORBISIER, 273, -",
        "bairro": "JABAQUARA",
        "cidade": "SÃO PAULO",
        "estado": "SP",
        "latitude": -23.6392403,
        "longitude": -46.6419503,
        "tag": "carrefour"
    },
    {
        "nome_estabelecimento": "Carrefour - João Pessoa - Jardim São Paulo",
        "endereco": "Rua Empresario Joao Rodrigues Alves, 85",
        "bairro": "Jardim São Paulo",
        "cidade": "JOÃO PESSOA",
        "estado": "PB",
        "latitude": -7.1466246,
        "longitude": -34.8484739,
        "tag": "carrefour"
    },
    {
        "nome_estabelecimento": "Carrefour - Jp Cidade Dos Bancários",
        "endereco": "RUA EMPRESÁRIO JOÃO RODRIGUES ALVES, 85, -",
        "bairro": "JARDIM SÃO PAULO",
        "cidade": "JOÃO PESSOA",
        "estado": "PB",
        "latitude": -7.1466246,
        "longitude": -34.8484739,
        "tag": "carrefour"
    },
    {
        "nome_estabelecimento": "Carrefour - Juiz De Fora",
        "endereco": "AV. BARÃO DO RIO BRANCO, 5001, -",
        "bairro": "GRAMINHA",
        "cidade": "JUIZ DE FORA",
        "estado": "MG",
        "latitude": -21.7831684,
        "longitude": -43.3438989,
        "tag": "carrefour"
    },
    {
        "nome_estabelecimento": "Carrefour - Maceió",
        "endereco": "Avenida Fernandes Lima, 3700",
        "bairro": "Gruta de Lourdes",
        "cidade": "MACEIÓ",
        "estado": "AL",
        "latitude": -9.613917,
        "longitude": -35.7376587,
        "tag": "carrefour"
    },
    {
        "nome_estabelecimento": "Carrefour - Manaus Adrianópolis",
        "endereco": "AVENIDA JORNALISTA HUMBERTO CALDERARO FILHO, 203, -",
        "bairro": "ADRIANÓPOLIS",
        "cidade": "MANAUS",
        "estado": "AM",
        "latitude": -3.0896241,
        "longitude": -60.0091631,
        "tag": "carrefour"
    },
    {
        "nome_estabelecimento": "Carrefour - Manaus - Flores",
        "endereco": "Avenida Djalma Batista , 276",
        "bairro": "Flores",
        "cidade": "MANAUS",
        "estado": "AM",
        "latitude": -3.0822196,
        "longitude": -60.0244373,
        "tag": "carrefour"
    },
    {
        "nome_estabelecimento": "Carrefour - Manilha",
        "endereco": "R. DR. OLIVEIRA BOTELHO , 349, -",
        "bairro": "NEVES",
        "cidade": "SÃO GONÇALO",
        "estado": "RJ",
        "latitude": -22.8411717,
        "longitude": -43.0907014,
        "tag": "carrefour"
    },
    {
        "nome_estabelecimento": "Carrefour Mfl",
        "endereco": "AVENIDA DO CONTORNO, 1431, -",
        "bairro": "FLORESTA",
        "cidade": "BELO HORIZONTE",
        "estado": "MG",
        "latitude": -19.915841,
        "longitude": -43.9275689,
        "tag": "carrefour"
    },
    {
        "nome_estabelecimento": "Carrefour - Mg - Alaska",
        "endereco": "PRAÇA DEPUTADO RENATO AZEREDO, 22, -",
        "bairro": "SION",
        "cidade": "BELO HORIZONTE",
        "estado": "MG",
        "latitude": -19.9567655,
        "longitude": -43.9341437,
        "tag": "carrefour"
    },
    {
        "nome_estabelecimento": "Carrefour - Mg - Amazonas",
        "endereco": "AVENIDA AMAZONAS, 5320, -",
        "bairro": "ALTO BARROCA",
        "cidade": "BELO HORIZONTE",
        "estado": "MG",
        "latitude": -19.9309706,
        "longitude": -43.9706433,
        "tag": "carrefour"
    },
    {
        "nome_estabelecimento": "Carrefour - Mg - Ceará",
        "endereco": "RUA CEARÁ, 1700, -",
        "bairro": "FUNCIONÁRIOS",
        "cidade": "BELO HORIZONTE",
        "estado": "MG",
        "latitude": -19.9303979,
        "longitude": -43.9278912,
        "tag": "carrefour"
    },
    {
        "nome_estabelecimento": "Carrefour - Mg - Cidade Jardim",
        "endereco": "AV. PRUDENTE DE MORAIS, 374, -",
        "bairro": "CIDADE JARDIM",
        "cidade": "BELO HORIZONTE",
        "estado": "MG",
        "latitude": -19.9394014,
        "longitude": -43.9480429,
        "tag": "carrefour"
    },
    {
        "nome_estabelecimento": "Carrefour - Mg - Eucarístico",
        "endereco": "RUA DOM JOSÉ PEREIRA LARA , 33, -",
        "bairro": "CORAÇÃO EUCARÍSTICO",
        "cidade": "BELO HORIZONTE",
        "estado": "MG",
        "latitude": -19.9242071,
        "longitude": -43.986535,
        "tag": "carrefour"
    },
    {
        "nome_estabelecimento": "Carrefour - Mg - Guajajaras",
        "endereco": "RUA DOS GUAJAJARAS, 11, -",
        "bairro": "CENTRO",
        "cidade": "BELO HORIZONTE",
        "estado": "MG",
        "latitude": -19.9267964,
        "longitude": -43.9342027,
        "tag": "carrefour"
    },
    {
        "nome_estabelecimento": "Carrefour - Mg - Homem Melo",
        "endereco": "AV. BARÃO HOMEM DE MELO, 629, -",
        "bairro": "NOVA SUIÇA",
        "cidade": "BELO HORIZONTE",
        "estado": "MG",
        "latitude": -19.9354071,
        "longitude": -43.9722162,
        "tag": "carrefour"
    },
    {
        "nome_estabelecimento": "Carrefour - Mg - Pedro Ii",
        "endereco": "AVENIDA DOM PEDRO II, 2930, -",
        "bairro": "CARLOS PRATES",
        "cidade": "BELO HORIZONTE",
        "estado": "MG",
        "latitude": -19.910944,
        "longitude": -43.968415,
        "tag": "carrefour"
    },
    {
        "nome_estabelecimento": "Carrefour - Mg - Rio Grande Do Sul",
        "endereco": "RUA RIO GRANDE DO SUL, 1019, -",
        "bairro": "SANTO AGOSTINHO",
        "cidade": "BELO HORIZONTE",
        "estado": "MG",
        "latitude": -19.9252153,
        "longitude": -43.9469249,
        "tag": "carrefour"
    },
    {
        "nome_estabelecimento": "Carrefour Mls",
        "endereco": "R. ACADÊMICO NILO FIGUEIREDO, 2400, -",
        "bairro": "BELA VISTA",
        "cidade": "BELO HORIZONTE",
        "estado": "MG",
        "latitude": -19.6409533,
        "longitude": -43.9043083,
        "tag": "carrefour"
    },
    {
        "nome_estabelecimento": "Carrefour Mpn",
        "endereco": "AVENIDA PEDRO TEIXEIRA, 52, -",
        "bairro": "DOM PEDRO I",
        "cidade": "MANAUS",
        "estado": "AM",
        "latitude": -3.0855087,
        "longitude": -60.0310025,
        "tag": "carrefour"
    },
    {
        "nome_estabelecimento": "Carrefour - Natal Zona Norte",
        "endereco": "AVENIDA DOUTOR JOÃO MEDEIROS FILHO, 2005, -",
        "bairro": "POTENGI",
        "cidade": "NATAL",
        "estado": "RN",
        "latitude": -5.7634227,
        "longitude": -35.2537668,
        "tag": "carrefour"
    },
    {
        "nome_estabelecimento": "Carrefour - Norte Shopping",
        "endereco": "AVENIDA DOM HÉLDER CÂMARA, 5474, -",
        "bairro": "CACHAMBI",
        "cidade": "RIO DE JANEIRO",
        "estado": "RJ",
        "latitude": -22.886685,
        "longitude": -43.2808463,
        "tag": "carrefour"
    },
    {
        "nome_estabelecimento": "Carrefour - Pamplona",
        "endereco": "RUA PAMPLONA, 1704, -",
        "bairro": "JARDIM PAULISTA",
        "cidade": "SÃO PAULO",
        "estado": "SP",
        "latitude": -23.5701739,
        "longitude": -46.6600236,
        "tag": "carrefour"
    },
    {
        "nome_estabelecimento": "Carrefour - Pampulha",
        "endereco": "AVENIDA PRESIDENTE CARLOS LUZ, 4055, -",
        "bairro": "PAMPULHA",
        "cidade": "BELO HORIZONTE",
        "estado": "MG",
        "latitude": -19.874957,
        "longitude": -43.9781086,
        "tag": "carrefour"
    },
    {
        "nome_estabelecimento": "Assaí 46",
        "endereco": "AVENIDA CLETO CAMPELO, 9, -",
        "bairro": "NOSSA SENHORA DAS DORES",
        "cidade": "CARUARU",
        "estado": "PE",
        "latitude": -8.2830886,
        "longitude": -35.965817,
        "tag": "assai"
    },
    {
        "nome_estabelecimento": "Assaí 47",
        "endereco": "AV.: GODOFREDO MACIEL, 86, -",
        "bairro": "PARANGABA",
        "cidade": "FORTALEZA",
        "estado": "CE",
        "latitude": -3.7783312,
        "longitude": -38.5647132,
        "tag": "assai"
    },
    {
        "nome_estabelecimento": "Assaí 50",
        "endereco": "AVENIDA ITAVUVU, 1766, -",
        "bairro": "JARDIM MARIA ANTÔNIA PRADO",
        "cidade": "SOROCABA",
        "estado": "SP",
        "latitude": -23.4622694,
        "longitude": -47.4792856,
        "tag": "assai"
    },
    {
        "nome_estabelecimento": "Assaí 53",
        "endereco": "AV. CONDESSA ELISABETH DE ROBIANO, 5500, -",
        "bairro": "JARDIM AMÉRICA DA PENHA",
        "cidade": "SÃO PAULO",
        "estado": "SP",
        "latitude": -23.5221818,
        "longitude": -46.5557888,
        "tag": "assai"
    },
    {
        "nome_estabelecimento": "Assaí 55",
        "endereco": "RUA FRANCISCO REAL, 2050, -",
        "bairro": "BANGU",
        "cidade": "RIO DE JANEIRO",
        "estado": "RJ",
        "latitude": -22.8796009,
        "longitude": -43.460214,
        "tag": "assai"
    },
    {
        "nome_estabelecimento": "Assaí 56",
        "endereco": "AVENIDA PADRE ORLANDO MORAIS, 1800, -",
        "bairro": "PARQUE AMAZÔNIA",
        "cidade": "GOIÂNIA",
        "estado": "GO",
        "latitude": -16.7406556,
        "longitude": -49.2843993,
        "tag": "assai"
    },
    {
        "nome_estabelecimento": "Assaí 58",
        "endereco": "AVENIDA FRANCISCO MONTEIRO, 1941, -",
        "bairro": "SANTA LUZIA",
        "cidade": "RIBEIRÃO PIRES",
        "estado": "SP",
        "latitude": -23.6951037,
        "longitude": -46.3955122,
        "tag": "assai"
    },